name,population,state,country,percentageOfSessions,latitude,longitude
Almaty,2030285,Almaty qala,Kazakhstan,null,43.2363924,76.9457275
Astana,1234042,Astana qala,Kazakhstan,null,51.1282205,71.4306682
Şymkent,1112478,Şymkent qala,Kazakhstan,null,42.3146962,69.5883282
Aqtöbe,540493,Aqtöbe,Kazakhstan,null,50.2836268,57.2298651
Qarağandy,508824,Qarağandy,Kazakhstan,null,49.8161282,73.1026622
Taraz,418368,Jambyl,Kazakhstan,null,42.9015945,71.3769302
Öskemen,349463,Şyğys Qazaqstan,Kazakhstan,null,49.9484438,82.6274791
Pavlodar,333190,Pavlodar,Kazakhstan,null,52.2857573,76.9455035
Atyrau,306548,Atyrau,Kazakhstan,null,47.1067183,51.9138976
Semei,303210,Şyğys Qazaqstan,Kazakhstan,null,50.404377,80.2496637
Qyzylorda,271309,Qyzylorda,Kazakhstan,null,44.8426778,65.5036151
Qostanai,258990,Qostanai,Kazakhstan,null,53.2146604,63.632607
Aqtau,251855,Mañğystau,Kazakhstan,null,43.6353364,51.168222
Oral,247467,Batys Qazaqstan,Kazakhstan,null,51.2040697,51.3707863
Petropavl,222636,Soltustık Qazaqstan,Kazakhstan,null,54.8668104,69.1334984
Türkıstan,207605,Turkıstan,Kazakhstan,null,43.3019457,68.2703698
Kökşetau,171630,Aqmola,Kazakhstan,null,53.2852054,69.3814676
Temırtau,171019,Qarağandy,Kazakhstan,null,50.0587825,72.9535681
Taldyqorğan,165325,Almaty,Kazakhstan,null,45.0164138,78.3791841
Ekıbastūz,129748,Pavlodar,Kazakhstan,null,51.7275817,75.3288511
Rudnyi,112052,Qostanai,Kazakhstan,null,52.964458,63.133488
Jezqazğan,88320,Qarağandy,Kazakhstan,null,47.80434,67.7145674
Qaskeleñ,79482,Almaty,Kazakhstan,null,43.1858776,76.6165737
Balqaş,73785,Qarağandy,Kazakhstan,null,46.8433208,74.9773285
Kentau,72573,Turkıstan,Kazakhstan,null,43.5165919,68.4996044
Jañaözen,72425,Mañğystau,Kazakhstan,null,43.3381034,52.8556219
Sätbaev,67456,Qarağandy,Kazakhstan,null,47.904949,67.530579
Qūlsary,64458,Atyrau,Kazakhstan,null,46.9621483,54.0129176
Talğar,63883,Almaty,Kazakhstan,null,43.3027233,77.2395288
Saryağaş,59606,Turkıstan,Kazakhstan,null,41.4501133,69.1644419
Zatşagansk,58356,Batys Qazaqstan,Kazakhstan,null,51.185177,51.316471
Beineu,55842,Mañğystau,Kazakhstan,null,45.321377,55.186226
Qapşağai,54245,Almaty,Kazakhstan,null,43.8649484,77.0533416
Jarkent,52361,Almaty,Kazakhstan,null,44.165665,80.002739
Aqsu,51866,Pavlodar,Kazakhstan,null,52.0354244,76.9341133
Qarabūlaq,51568,Turkıstan,Kazakhstan,null,42.5259144,69.7705094
Arys,50370,Turkıstan,Kazakhstan,null,42.4324695,68.8134889
Stepnogor,48894,Aqmola,Kazakhstan,null,52.346371,71.880493
Qosşy,48630,Aqmola,Kazakhstan,null,50.9754092,71.354946
Ştşutşinsk q.,46744,Aqmola,Kazakhstan,null,52.9387457,70.1857634
Ūzynağaş,46159,Almaty,Kazakhstan,null,43.2118387,76.3159728
Ridder,45859,Şyğys Qazaqstan,Kazakhstan,null,50.338932,83.506157
Şu,44814,Jambyl,Kazakhstan,null,43.608765,73.76075
Äiteke Bi,44502,Qyzylorda,Kazakhstan,null,45.844875,62.153023
Jetısai,44105,Turkıstan,Kazakhstan,null,40.777134,68.324677
Aiagöz,42351,Şyğys Qazaqstan,Kazakhstan,null,47.9651211,80.4365994
Esık,41018,Almaty,Kazakhstan,null,43.359486,77.465919
Şahtinsk,38923,Qarağandy,Kazakhstan,null,49.7056642,72.5948421
Qordai,38012,Jambyl,Kazakhstan,null,43.042965,74.714485
Altai,36360,Şyğys Qazaqstan,Kazakhstan,null,49.724243,84.275146
Aqsai,36293,Batys Qazaqstan,Kazakhstan,null,51.173893,53.011478
Aral,36004,Qyzylorda,Kazakhstan,null,46.797985,61.661221
Şielı,35972,Qyzylorda,Kazakhstan,null,44.176025,66.740959
Boraldai,35863,Almaty,Kazakhstan,null,43.3584693,76.8590468
Rahat,35468,Mañğystau,Kazakhstan,null,43.328697,52.902336
Qandyağaş,34898,Aqtöbe,Kazakhstan,null,49.4718361,57.4224647
Jıtıqara,34880,Qostanai,Kazakhstan,null,52.1856061,61.1893675
Baiqoñyr,34295,Qyzylorda,Kazakhstan,null,45.6321977,63.3209201
Saran,33699,Qarağandy,Kazakhstan,null,49.8017081,72.8285112
Mañğystau,33141,Mañğystau,Kazakhstan,null,43.692318,51.304714
Aqsu,32896,Turkıstan,Kazakhstan,null,42.4234022,69.8252591
Leñgır,32622,Turkıstan,Kazakhstan,null,42.181854,69.88755
Şūbarsu,32390,Turkıstan,Kazakhstan,null,42.4886185,69.4198179
Sarykemer,32043,Jambyl,Kazakhstan,null,43.000439,71.512039
Jañaqorğan,31910,Qyzylorda,Kazakhstan,null,43.909836,67.249458
Lisakov,31748,Qostanai,Kazakhstan,null,52.545864,62.489201
Ötegen batyr,31675,Almaty,Kazakhstan,null,43.4162574,77.017482
Basqūdyq,31534,Mañğystau,Kazakhstan,null,43.687016,51.20887
Atbasar,31434,Aqmola,Kazakhstan,null,51.8099624,68.3584729
Şardara,31431,Turkıstan,Kazakhstan,null,41.255856,67.975266
Qarğaly,30999,Almaty,Kazakhstan,null,43.164577,76.414658
Mankent,30135,Turkıstan,Kazakhstan,null,42.4307582,69.8571253
Jıbek Joly,30124,Almaty,Kazakhstan,null,43.3719024,76.6263868
Arqalyq,29589,Qostanai,Kazakhstan,null,50.253281,66.914993
Hromtau,29579,Aqtöbe,Kazakhstan,null,50.256878,58.435345
Atameken,29294,Mañğystau,Kazakhstan,null,43.6635046,51.2069058
Tekelı,29253,Almaty,Kazakhstan,null,44.8615202,78.7629423
Şelek,29032,Almaty,Kazakhstan,null,43.594425,78.263054
Şamalğan,28644,Almaty,Kazakhstan,null,43.3703204,76.6242825
Abai,28602,Qarağandy,Kazakhstan,null,49.6299017,72.8722067
Derqūl,28407,Batys Qazaqstan,Kazakhstan,null,51.256031,51.292717
Tobyl,28251,Qostanai,Kazakhstan,null,53.207062,63.70311
Qaratau,28045,Jambyl,Kazakhstan,null,43.176197,70.46489
Şalqar,27833,Aqtöbe,Kazakhstan,null,47.8273018,59.6159216
Tasböget,27590,Qyzylorda,Kazakhstan,null,44.769459,65.55484
Baiserke,26338,Almaty,Kazakhstan,null,43.480175,77.04187
Qazyğūrt,26293,Turkıstan,Kazakhstan,null,41.758801,69.385651
Qyzyltöbe,25188,Mañğystau,Kazakhstan,null,43.6810699,51.3429252
Jañatas,25018,Jambyl,Kazakhstan,null,43.5567547,69.7265539
Tūrar Rysqūlov,24748,Turkıstan,Kazakhstan,null,42.5344182,70.3501763
Abai,23510,Turkıstan,Kazakhstan,null,41.345394,68.952988
Alğa,22446,Aqtöbe,Kazakhstan,null,49.896259,57.330296
Şonja,22068,Almaty,Kazakhstan,null,43.537277,79.465935
Tūzdybastau,21693,Almaty,Kazakhstan,null,43.3077438,77.0603505
Üşaral,21122,Almaty,Kazakhstan,null,46.176125,80.952568
Eskıikan,20885,Turkıstan,Kazakhstan,null,43.189571,68.525978
Mūhametjan Tüimebaev,20781,Almaty,Kazakhstan,null,43.4216351,76.9151675
Jetıgen,20429,Almaty,Kazakhstan,null,43.6729665,77.107841
Josaly,20182,Qyzylorda,Kazakhstan,null,45.484024,64.0849
Töle Bi,19771,Jambyl,Kazakhstan,null,43.681767,73.762444
Üştöbe,19744,Almaty,Kazakhstan,null,45.2513771,77.9838119
Qarabūlaq,19561,Almaty,Kazakhstan,null,44.908175,78.4911895
Sortöbe,19458,Jambyl,Kazakhstan,null,42.86599,75.250145
Atakent,19240,Turkıstan,Kazakhstan,null,40.844435,68.5090214
Şolaqqorğan,19090,Turkıstan,Kazakhstan,null,43.766701,69.17688
Tomarly,18879,Atyrau,Kazakhstan,null,47.1596649,51.9490886
Qūlan,18572,Jambyl,Kazakhstan,null,42.910576,72.715652
Şemonaiha,18448,Şyğys Qazaqstan,Kazakhstan,null,50.6287241,81.9155467
Zaisan,18430,Şyğys Qazaqstan,Kazakhstan,null,47.467175,84.871895
Makinsk,18098,Aqmola,Kazakhstan,null,52.63287,70.418213
Sarqant,17907,Almaty,Kazakhstan,null,45.4109229,79.9155159
Temırlan,17796,Turkıstan,Kazakhstan,null,42.5999908,69.2581088
Masantşi,17631,Jambyl,Kazakhstan,null,42.927032,75.306915
Jañaarqa,17420,Qarağandy,Kazakhstan,null,48.6861721,71.6355854
Ürjar,17296,Şyğys Qazaqstan,Kazakhstan,null,47.0992377,81.63478
Merke,17133,Jambyl,Kazakhstan,null,42.8713714,73.1738583
Keñdala,16878,Almaty,Kazakhstan,null,43.35238,77.23179
Balpyq Bi,16781,Almaty,Kazakhstan,null,44.901318,78.23307
Şetpe,16762,Mañğystau,Kazakhstan,null,44.1413139,52.1556413
Besağaş,16632,Almaty,Kazakhstan,null,43.29848,77.04125
Batyr,16621,Mañğystau,Kazakhstan,null,43.6292761,51.404417
Myrzakent,16550,Turkıstan,Kazakhstan,null,40.6654425,68.5499388
Irgelı,16450,Almaty,Kazakhstan,null,43.2351416,76.762335
Aqköl,16017,Aqmola,Kazakhstan,null,51.9956724,70.9560123
Teñge,15894,Mañğystau,Kazakhstan,null,43.312653,52.852253
İnderbor,15664,Atyrau,Kazakhstan,null,48.5610249,51.7478775
Saryözek,15359,Almaty,Kazakhstan,null,44.362385,77.974594
Bauyrjan Momyşūly,15284,Jambyl,Kazakhstan,null,42.618401,70.769516
Jalağaş,15106,Qyzylorda,Kazakhstan,null,45.0808963,64.6809179
Qūrmanğazy,14532,Atyrau,Kazakhstan,null,46.6051587,49.2783978
Kaztsik,14499,Almaty,Kazakhstan,null,43.381348,76.855621
Köksäiek,14304,Turkıstan,Kazakhstan,null,42.255844,69.976006
Asyqata,14245,Turkıstan,Kazakhstan,null,40.8964679,68.3666754
Şūbarqūdyq,14125,Aqtöbe,Kazakhstan,null,49.2042467,56.5637056
Qarasu,14119,Turkıstan,Kazakhstan,null,42.405922,69.801369
Qaramūrt,14058,Turkıstan,Kazakhstan,null,42.312393,69.972954
Erkın,13886,Almaty,Kazakhstan,null,45.028911,78.4187944
Maqat,13837,Atyrau,Kazakhstan,null,47.6471515,53.350528
Dossor,13806,Atyrau,Kazakhstan,null,47.522774,52.979435
Türgen,13805,Almaty,Kazakhstan,null,43.396721,77.593498
Krasnyi İar,13536,Aqmola,Kazakhstan,null,53.3265651,69.2643176
Jetıbai,13528,Mañğystau,Kazakhstan,null,43.5883652,52.1014626
Panfilov,13428,Almaty,Kazakhstan,null,43.3866882,77.1225103
Aqmol,13400,Aqmola,Kazakhstan,null,51.0714722,70.9811874
Derbısek,13347,Turkıstan,Kazakhstan,null,41.554444,69.359167
Taiynşa,13113,Soltustık Qazaqstan,Kazakhstan,null,53.847736,69.761436
Asa,12892,Jambyl,Kazakhstan,null,43.036049,71.151062
Kendırlı,12868,Mañğystau,Kazakhstan,null,43.3233898,52.9045851
Qarnaq,12860,Turkıstan,Kazakhstan,null,43.51741,68.347458
Besköl,12838,Soltustık Qazaqstan,Kazakhstan,null,54.775146,69.097794
Embı,12783,Aqtöbe,Kazakhstan,null,48.829453,58.147369
Ereimentau,12652,Aqmola,Kazakhstan,null,51.619881,73.103348
Japek batyr,12470,Almaty,Kazakhstan,null,43.4143123,76.8945813
Aqşūqyr,12279,Mañğystau,Kazakhstan,null,43.7831766,51.0605022
Novoişim,11964,Soltustık Qazaqstan,Kazakhstan,null,53.201904,66.7609529
Maqanşy,11929,Şyğys Qazaqstan,Kazakhstan,null,46.7903859,82.020632
Saumalköl,11898,Soltustık Qazaqstan,Kazakhstan,null,53.2940231,68.1060457
Sarymoldaev,11556,Jambyl,Kazakhstan,null,42.871155,73.232849
Esıl,11484,Aqmola,Kazakhstan,null,51.9601511,66.4088826
Qūryq,11466,Mañğystau,Kazakhstan,null,43.176664,51.6796799
Tereñözek,11437,Qyzylorda,Kazakhstan,null,45.0483776,64.9840901
Qyzyljarma,11274,Qyzylorda,Kazakhstan,null,44.893051,65.465462
Töretam,11004,Qyzylorda,Kazakhstan,null,45.650665,63.315601
Bäiterek,10996,Almaty,Kazakhstan,null,43.4022167,77.2235637
Tülkıbas,10973,Turkıstan,Kazakhstan,null,42.488754,70.286255
Qarabalyq,10966,Qostanai,Kazakhstan,null,53.748184,62.062511
Erkınqala,10939,Atyrau,Kazakhstan,null,47.0257106,51.8028116
Priozer,10909,Qarağandy,Kazakhstan,null,46.031532,73.690071
Qarauylkeldı,10887,Aqtöbe,Kazakhstan,null,48.6935886,55.8772348
Lugovoe,10872,Jambyl,Kazakhstan,null,42.9408033,72.7598564
Sekseuıl,10870,Qyzylorda,Kazakhstan,null,47.0829138,61.1530438
Äulieköl,10857,Qostanai,Kazakhstan,null,52.361904,64.133171
Qalbatau,10759,Şyğys Qazaqstan,Kazakhstan,null,49.330227,81.570709
Zaretşnyi,10703,Qostanai,Kazakhstan,null,53.2351407,63.7377873
Mahambet,10685,Atyrau,Kazakhstan,null,47.675577,51.5865434
Märtök,10679,Aqtöbe,Kazakhstan,null,50.7443222,56.4995791
Glubokoe,10677,Şyğys Qazaqstan,Kazakhstan,null,50.1438305,82.3169517
Pavlodarskoe,10613,Pavlodar,Kazakhstan,null,52.3881139,76.8613965
Tşapaevo,10550,Almaty,Kazakhstan,null,43.4701355,76.8055512
Köktal,10500,Almaty,Kazakhstan,null,44.137226,79.812553
Bäidıbek Bi,10444,Almaty,Kazakhstan,null,43.512241,77.692787
Köksai,10439,Almaty,Kazakhstan,null,43.259354,76.775635
Kurtşatov,10411,Şyğys Qazaqstan,Kazakhstan,null,50.7565343,78.5486736
Ötenai,10262,Almaty,Kazakhstan,null,45.01017,78.3182023
Kölkent,10223,Turkıstan,Kazakhstan,null,42.5385933,69.6637344
Qaşar,10195,Qostanai,Kazakhstan,null,53.369434,62.869267
Şäuıldır,10195,Turkıstan,Kazakhstan,null,42.778601,68.372741
Däulet,10135,Mañğystau,Kazakhstan,null,43.692368,51.321125
Maqambetov,10100,Qyzylorda,Kazakhstan,null,44.764992,65.481812
Jansügırov,10024,Almaty,Kazakhstan,null,45.398308,79.508598
Jalpaqtöbe,9833,Jambyl,Kazakhstan,null,42.8561604,71.4396513
Şaian,9814,Turkıstan,Kazakhstan,null,43.032307,69.380745
Qaraötkel,9804,Aqmola,Kazakhstan,null,51.1230405,71.2127745
Mejduretşenskoe,9772,Almaty,Kazakhstan,null,43.458656,76.7271089
Aqadyr,9756,Qarağandy,Kazakhstan,null,48.259068,72.854958
Tşapaev,9642,Batys Qazaqstan,Kazakhstan,null,50.1878581,51.1716191
Podstepnoe,9562,Batys Qazaqstan,Kazakhstan,null,51.152515,51.49041
Qoiandy,9545,Aqmola,Kazakhstan,null,51.2763122,71.6444549
Lenin,9488,Pavlodar,Kazakhstan,null,52.260372,76.7871707
Badam,9486,Turkıstan,Kazakhstan,null,42.3850468,69.2517633
Rahat,9438,Almaty,Kazakhstan,null,43.375938,77.360413
Belousovka,9434,Şyğys Qazaqstan,Kazakhstan,null,50.1300262,82.5190556
Qaraoi,9420,Almaty,Kazakhstan,null,43.517513,76.830063
Topar,9329,Qarağandy,Kazakhstan,null,49.5172874,72.830423
Jañaqala,9325,Batys Qazaqstan,Kazakhstan,null,49.2136,50.300404
Qainazar,9287,Almaty,Kazakhstan,null,43.368755,77.312263
Qarqaraly,9252,Qarağandy,Kazakhstan,null,49.4124087,75.4704514
Belbūlaq,9127,Almaty,Kazakhstan,null,43.313999,77.102219
Jäirem,9069,Qarağandy,Kazakhstan,null,48.335682,70.161003
Güldala,9041,Almaty,Kazakhstan,null,43.34921,77.05387
Tasqala,9012,Atyrau,Kazakhstan,null,47.0302741,51.9074714
Saiyn Şapağatov,8947,Mañğystau,Kazakhstan,null,43.8385975,51.0315478
Aqtas,8947,Qarağandy,Kazakhstan,null,49.778292,72.9637992
Moiynqūm,8895,Jambyl,Kazakhstan,null,44.28545,72.94297
Aqqystau,8880,Atyrau,Kazakhstan,null,47.224312,51.009457
Osakarovka,8812,Qarağandy,Kazakhstan,null,50.5606688,72.5813736
Borovskoi,8807,Qostanai,Kazakhstan,null,53.8058865,64.1758398
Kegen,8740,Almaty,Kazakhstan,null,43.021698,79.22316
Saryköl,8738,Qostanai,Kazakhstan,null,53.317356,65.546844
Qyrğauyldy,8615,Almaty,Kazakhstan,null,43.1725242,76.758557
Kürşım,8546,Şyğys Qazaqstan,Kazakhstan,null,48.5656876,83.6524237
Qyzyltu,8541,Almaty,Kazakhstan,null,43.4175934,77.0713933
Bulaev,8535,Soltustık Qazaqstan,Kazakhstan,null,54.896652,70.447189
Fort-Şevtşenko,8447,Mañğystau,Kazakhstan,null,44.508556,50.261929
Kökqainar,8330,Almaty,Kazakhstan,null,43.4534417,76.943732
Jıbek Joly,8316,Turkıstan,Kazakhstan,null,41.4758518,69.3658234
Qarajal,8295,Qarağandy,Kazakhstan,null,48.0045008,70.7936243
Abai,8287,Almaty,Kazakhstan,null,43.211494,76.761475
Qyzylqairat,8265,Almaty,Kazakhstan,null,43.303921,77.186073
Tereñköl,8208,Pavlodar,Kazakhstan,null,53.0666191,76.0992584
Qaraşyq,8148,Turkıstan,Kazakhstan,null,43.373813,68.28717
Pidjım,8146,Almaty,Kazakhstan,null,44.212772,80.206566
Şarbaqty,8132,Pavlodar,Kazakhstan,null,52.4894141,78.159375
Sergeev,8132,Soltustık Qazaqstan,Kazakhstan,null,53.880951,67.415863
Tasqala,8118,Batys Qazaqstan,Kazakhstan,null,51.106861,50.291088
Ertıs,8070,Pavlodar,Kazakhstan,null,53.3325963,75.4584153
Talapker,7969,Aqmola,Kazakhstan,null,51.243294,71.165031
Qabanbai batyr,7968,Aqmola,Kazakhstan,null,50.852684,71.354568
Sozaq,7968,Turkıstan,Kazakhstan,null,44.137165,68.466324
Jezkent,7917,Şyğys Qazaqstan,Kazakhstan,null,50.9220353,81.3957353
Gvardeiskii,7898,Jambyl,Kazakhstan,null,43.579205,75.218475
Arşaly,7888,Aqmola,Kazakhstan,null,50.8304142,72.1811626
Qojaqorğan,7863,Turkıstan,Kazakhstan,null,42.5723921,69.7923179
Qoşmämbet,7824,Almaty,Kazakhstan,null,43.340603,76.662842
Baiandy,7758,Mañğystau,Kazakhstan,null,43.7651745,51.3069892
Taukent,7673,Turkıstan,Kazakhstan,null,43.8643366,68.7579489
Jalpaqsai,7669,Almaty,Kazakhstan,null,43.2331192,76.6777355
Şyñğyrlau,7639,Batys Qazaqstan,Kazakhstan,null,51.100506,54.085167
Yntymaq,7614,Turkıstan,Kazakhstan,null,40.7645467,68.3025567
Jänıbek,7586,Batys Qazaqstan,Kazakhstan,null,49.4230074,46.8517166
Miialy,7569,Atyrau,Kazakhstan,null,48.8860423,53.7905551
Buryl,7532,Jambyl,Kazakhstan,null,42.973869,71.423912
Ömırzaq,7510,Mañğystau,Kazakhstan,null,43.5975904,51.2436968
Şaqan,7466,Qarağandy,Kazakhstan,null,49.8186889,72.6548148
Maiqaiyñ,7459,Pavlodar,Kazakhstan,null,51.4632847,75.8041945
İbaata,7435,Turkıstan,Kazakhstan,null,43.3421589,68.6818884
Tüimekent,7405,Jambyl,Kazakhstan,null,43.133675,71.634125
Qazaly,7324,Qyzylorda,Kazakhstan,null,45.76255,62.101181
Qainazar,7303,Almaty,Kazakhstan,null,43.197689,76.268951
Serebriansk,7284,Şyğys Qazaqstan,Kazakhstan,null,49.684608,83.297089
Boranqūl,7277,Mañğystau,Kazakhstan,null,46.206669,54.470436
Sağyz,7249,Atyrau,Kazakhstan,null,48.234829,54.878654
Aqsuat,7183,Şyğys Qazaqstan,Kazakhstan,null,47.7620046,82.8061386
Temırbek Jürgenov,7167,Aqtöbe,Kazakhstan,null,50.4309128,60.4966174
Zerendı,7162,Aqmola,Kazakhstan,null,52.907032,69.150291
Mamliut,7116,Soltustık Qazaqstan,Kazakhstan,null,54.934776,68.545174
Derjavin,7097,Aqmola,Kazakhstan,null,51.0990849,66.3138516
Kenjeköl,7047,Pavlodar,Kazakhstan,null,52.184532,77.027206
Yntymaq,7021,Turkıstan,Kazakhstan,null,41.400131,69.117866
Fedorov,6976,Qostanai,Kazakhstan,null,53.636597,62.699245
Köksu,6972,Turkıstan,Kazakhstan,null,41.473731,68.0232238
Jaña Qaraton,6966,Atyrau,Kazakhstan,null,46.9315613,53.8741897
Raiymbek,6944,Almaty,Kazakhstan,null,43.19762,76.750183
Äitei,6923,Almaty,Kazakhstan,null,43.2321212,76.5978236
Törtkül,6917,Turkıstan,Kazakhstan,null,42.929775,68.946007
Qazaqstannyñ 30 Jyldyğy,6869,Turkıstan,Kazakhstan,null,43.2591888,68.3839149
Jambyl,6864,Jambyl,Kazakhstan,null,42.8676134,73.1551553
Ahmirovo,6851,Şyğys Qazaqstan,Kazakhstan,null,49.9486903,82.5281972
Qūsmūryn,6795,Qostanai,Kazakhstan,null,52.451801,64.615204
Amangeldı,6778,Qostanai,Kazakhstan,null,50.1806755,65.1942135
Bereke,6729,Almaty,Kazakhstan,null,43.373142,76.712074
Şar,6719,Şyğys Qazaqstan,Kazakhstan,null,49.583221,81.050629
Jandosov,6701,Almaty,Kazakhstan,null,43.167881,76.562103
Kışkeneköl,6675,Soltustık Qazaqstan,Kazakhstan,null,53.6357326,72.3411085
Auqatty,6672,Jambyl,Kazakhstan,null,42.894104,75.150894
Yrğyz,6652,Aqtöbe,Kazakhstan,null,48.617874,61.263981
Nūra,6626,Qarağandy,Kazakhstan,null,50.2606707,71.5527472
Qabanbai,6605,Almaty,Kazakhstan,null,45.834267,80.630844
Bırınşı Mamyr,6591,Turkıstan,Kazakhstan,null,42.1006181,69.8821129
Merkı stansasy,6575,Jambyl,Kazakhstan,null,42.8777871,73.2240149
Şortandy,6562,Aqmola,Kazakhstan,null,51.697429,70.9871618
Aqjar,6527,Turkıstan,Kazakhstan,null,41.6035526,69.3463736
Qoram,6479,Almaty,Kazakhstan,null,43.540955,78.169502
Qasym Qaisenov,6465,Şyğys Qazaqstan,Kazakhstan,null,49.8755707,82.4875024
Grodekovo,6461,Jambyl,Kazakhstan,null,42.821964,71.490044
Qabylanbek,6447,Turkıstan,Kazakhstan,null,41.4941447,69.2720994
Qarakemer,6426,Almaty,Kazakhstan,null,43.423302,77.622612
Botaqara,6425,Qarağandy,Kazakhstan,null,50.0596912,73.716709
Amanqarağai,6403,Qostanai,Kazakhstan,null,52.402306,64.081749
Qūrkeles,6389,Turkıstan,Kazakhstan,null,41.4701667,69.1328611
Oiyl,6354,Aqtöbe,Kazakhstan,null,49.0724892,54.662738
Kölıaştşy,6336,Almaty,Kazakhstan,null,43.355598,76.609741
Jüinek,6332,Turkıstan,Kazakhstan,null,43.428551,68.275742
Dostyq,6314,Almaty,Kazakhstan,null,45.256062,82.492783
Dolinka,6304,Qarağandy,Kazakhstan,null,49.6783731,72.6783469
Qoianqūs,6300,Almaty,Kazakhstan,null,43.3923319,76.9400761
Krasnaia Zvezda,6300,Jambyl,Kazakhstan,null,42.92569,71.436531
Baqanas,6288,Almaty,Kazakhstan,null,44.807812,76.274628
Sūltanrabat,6277,Turkıstan,Kazakhstan,null,42.199112,69.801613
Jambyl,6262,Almaty,Kazakhstan,null,43.2743893,76.6727819
Şaryn,6236,Almaty,Kazakhstan,null,43.772888,79.390045
Dınmūhamed Qonaev,6226,Jambyl,Kazakhstan,null,43.631283,73.810638
Mitşurin,6219,Batys Qazaqstan,Kazakhstan,null,51.264679,51.383957
Tobyl,6186,Qostanai,Kazakhstan,null,52.693645,62.594765
Qyzyljar,6168,Turkıstan,Kazakhstan,null,41.5133342,69.2744638
Prigorodnoe,6165,Jambyl,Kazakhstan,null,42.8455941,71.4155761
Narynqol,6142,Almaty,Kazakhstan,null,42.729275,80.177589
Presnovka,6113,Soltustık Qazaqstan,Kazakhstan,null,54.6686113,67.1452217
Baianauyl,6078,Pavlodar,Kazakhstan,null,50.7928518,75.702764
Astrahanka,6070,Aqmola,Kazakhstan,null,51.5291831,69.7916595
İavlenka,6032,Soltustık Qazaqstan,Kazakhstan,null,54.3462508,68.4566996
Keñqiiaq,6015,Aqtöbe,Kazakhstan,null,48.6074723,57.113878
Menovnoe,5999,Şyğys Qazaqstan,Kazakhstan,null,49.9335966,82.5842022
Hantağy,5978,Turkıstan,Kazakhstan,null,43.5268585,68.5861978
Bestöbe,5965,Aqmola,Kazakhstan,null,52.5007624,73.0922388
Samarskoe,5948,Şyğys Qazaqstan,Kazakhstan,null,49.0204765,83.3658198
Qobda,5943,Aqtöbe,Kazakhstan,null,50.1521793,55.6679179
Jympity,5931,Batys Qazaqstan,Kazakhstan,null,50.260317,52.6010876
Boroduliha,5912,Şyğys Qazaqstan,Kazakhstan,null,50.7207116,80.9340577
Kemertoğan,5891,Almaty,Kazakhstan,null,43.246567,76.746597
Qyzyltal,5865,Batys Qazaqstan,Kazakhstan,null,51.132874,53.06699
Aqtau,5851,Qarağandy,Kazakhstan,null,50.2288046,73.0588809
Baizaq,5850,Jambyl,Kazakhstan,null,42.973522,71.527969
Solnetşnyi,5843,Pavlodar,Kazakhstan,null,52.03487,75.461388
Badamşa,5824,Aqtöbe,Kazakhstan,null,50.562958,58.283154
Smirnovo,5820,Soltustık Qazaqstan,Kazakhstan,null,54.51453,69.419189
Aqjar,5818,Şyğys Qazaqstan,Kazakhstan,null,47.582851,83.689468
Aqjar,5815,Atyrau,Kazakhstan,null,47.2130462,51.9510333
Molodejnyi,5806,Qarağandy,Kazakhstan,null,50.722263,73.531303
Qyzylsai,5803,Mañğystau,Kazakhstan,null,43.448353,53.038296
Aqbūlaq,5765,Turkıstan,Kazakhstan,null,42.383747,69.8918262
Jañaqūrylys,5752,Almaty,Kazakhstan,null,43.2471201,76.3157392
Qaraauyl,5717,Şyğys Qazaqstan,Kazakhstan,null,48.949196,79.254616
Baqtybai Jolbarysūly,5714,Almaty,Kazakhstan,null,44.931416,78.260361
Krugloozernyi,5705,Batys Qazaqstan,Kazakhstan,null,51.0782686,51.2822337
Darinskoe,5701,Batys Qazaqstan,Kazakhstan,null,51.3564389,51.7507346
Ülken Şağan,5698,Almaty,Kazakhstan,null,44.170177,80.087158
Aqşi,5650,Almaty,Kazakhstan,null,43.9933443,76.3339
Jañaşar,5645,Almaty,Kazakhstan,null,43.438431,77.259712
Rakuşa,5610,Atyrau,Kazakhstan,null,47.0571707,51.8378186
Andas batyr,5599,Jambyl,Kazakhstan,null,42.8292711,73.4934327
Sastöbe,5588,Turkıstan,Kazakhstan,null,42.5543364,69.9968655
Betqainar,5587,Jambyl,Kazakhstan,null,43.210541,74.466866
Qosseiıt,5578,Turkıstan,Kazakhstan,null,41.39381,67.999298
Kaztalovka,5560,Batys Qazaqstan,Kazakhstan,null,49.769405,48.689529
Taldybūlaq,5492,Almaty,Kazakhstan,null,43.309166,77.159836
Nūra,5488,Almaty,Kazakhstan,null,43.6877,77.19418
Aqai,5478,Qyzylorda,Kazakhstan,null,45.6537794,63.1096293
Novodolinskii,5471,Qarağandy,Kazakhstan,null,49.7081074,72.7119397
Jelezinka,5438,Pavlodar,Kazakhstan,null,53.5379935,75.3129714
Zaretşnyi,5366,Almaty,Kazakhstan,null,43.714199,77.041367
Qaqpaq,5360,Turkıstan,Kazakhstan,null,41.6251953,69.5311188
Myñbaev,5357,Almaty,Kazakhstan,null,43.288506,76.448311
Jañatalap,5307,Atyrau,Kazakhstan,null,46.9939386,51.811561
Saudakent,5275,Jambyl,Kazakhstan,null,43.735256,69.924622
Enkes,5241,Turkıstan,Kazakhstan,null,41.426437,69.121383
Darbaza,5238,Turkıstan,Kazakhstan,null,41.5663203,69.0831746
Ülken Naryn,5236,Şyğys Qazaqstan,Kazakhstan,null,49.213886,84.508766
Şardara,5228,Turkıstan,Kazakhstan,null,41.3189789,67.9694295
Ūranğai,5214,Turkıstan,Kazakhstan,null,43.3999652,68.3818245
Mūnaişy,5209,Mañğystau,Kazakhstan,null,43.4985033,52.0879358
Aqtoğai,5195,Şyğys Qazaqstan,Kazakhstan,null,46.952198,79.67543
Denisov,5186,Qostanai,Kazakhstan,null,52.44194,61.743259
Ūzynköl,5171,Qostanai,Kazakhstan,null,54.0375788,65.3378245
Zağambar,5158,Turkıstan,Kazakhstan,null,42.1031261,69.898839
Bekbolat Äşekeev,5156,Almaty,Kazakhstan,null,43.167597,76.4776213
Fedorov,5143,Batys Qazaqstan,Kazakhstan,null,51.222443,51.962719
Ūzynata,5125,Turkıstan,Kazakhstan,null,41.6667248,67.9787206
Pokrov,5113,Almaty,Kazakhstan,null,43.4025674,77.0087877
Kökpektı,5103,Şyğys Qazaqstan,Kazakhstan,null,48.7558184,82.3826094
Qazybek Bek,5100,Almaty,Kazakhstan,null,43.60223,76.318153
Qosmezgıl,5053,Turkıstan,Kazakhstan,null,43.390975,68.060516
Aqsu-Aiuly,5051,Qarağandy,Kazakhstan,null,48.7655707,73.6740332
Balyqty,5018,Turkıstan,Kazakhstan,null,42.586635,70.060939
Aişabibı,4984,Jambyl,Kazakhstan,null,42.8373879,71.2155588
Saryjar,4963,Aqtöbe,Kazakhstan,null,50.507347,56.92065
Oital,4963,Jambyl,Kazakhstan,null,42.90527,73.27002
Jañadäuır,4944,Almaty,Kazakhstan,null,43.440334,76.957008
Qarasu,4929,Jambyl,Kazakhstan,null,42.982792,74.907417
Şeñgeldı,4922,Almaty,Kazakhstan,null,43.981335,77.466209
Otar,4896,Jambyl,Kazakhstan,null,43.537647,75.21698
Azat,4876,Almaty,Kazakhstan,null,43.3489261,77.2628789
Teskensu,4854,Almaty,Kazakhstan,null,43.5485486,77.8693105
Qazaqstan,4817,Turkıstan,Kazakhstan,null,41.806736,67.989281
Üşaral,4793,Almaty,Kazakhstan,null,44.1157224,79.8766448
Aqsuabat,4772,Turkıstan,Kazakhstan,null,42.489322,69.743614
Tūrar,4767,Almaty,Kazakhstan,null,43.314243,76.583824
Besqarağai,4765,Şyğys Qazaqstan,Kazakhstan,null,50.888058,79.480721
Ülbı,4759,Şyğys Qazaqstan,Kazakhstan,null,50.265156,83.377739
Ust-Talovka,4756,Şyğys Qazaqstan,Kazakhstan,null,50.5481989,81.8500631
Saimasai,4753,Almaty,Kazakhstan,null,43.446185,77.3335472
Qarabūlaq,4749,Almaty,Kazakhstan,null,43.40894,77.14736
Aqköl,4738,Atyrau,Kazakhstan,null,46.659927,49.0501562
Äljan Ana,4720,Jambyl,Kazakhstan,null,43.111717,74.639847
Jaskeşu,4718,Turkıstan,Kazakhstan,null,42.555885,70.173706
Qamysty,4685,Qostanai,Kazakhstan,null,51.963688,61.779518
Jalpaqtal,4684,Batys Qazaqstan,Kazakhstan,null,49.670628,49.473915
Tūştşyqūdyq,4683,Atyrau,Kazakhstan,null,47.260109,51.067558
Qyzyläsker,4662,Turkıstan,Kazakhstan,null,41.093763,68.6928817
Jambyl,4661,Jambyl,Kazakhstan,null,43.1649477,74.5980959
Qasymbek Datqa,4659,Turkıstan,Kazakhstan,null,42.4847892,69.6312189
Aqniet,4658,Turkıstan,Kazakhstan,null,41.4525619,69.1516477
Belköl,4655,Qyzylorda,Kazakhstan,null,44.813961,65.589195
Almalybaq,4649,Almaty,Kazakhstan,null,43.2172315,76.6829731
Jaqsyqylyş,4631,Qyzylorda,Kazakhstan,null,46.828312,61.859272
Jaqsy,4626,Aqmola,Kazakhstan,null,51.908749,67.31617
Torğai,4602,Qostanai,Kazakhstan,null,49.632599,63.491604
Kökterek,4598,Turkıstan,Kazakhstan,null,41.3751711,69.060529
Qosözen,4573,Almaty,Kazakhstan,null,43.5623444,76.9168081
Zertas,4544,Turkıstan,Kazakhstan,null,42.26067,69.914162
Jylysu,4542,Turkıstan,Kazakhstan,null,40.8097793,68.1765216
Qyzyljar,4516,Almaty,Kazakhstan,null,43.356159,77.491272
Azatlyq,4515,Turkıstan,Kazakhstan,null,42.554329,70.2760219
Opytnoe Pole,4510,Şyğys Qazaqstan,Kazakhstan,null,50.0358797,82.5502107
Uspen,4496,Pavlodar,Kazakhstan,null,52.9068212,77.4191177
Aqtoğai,4495,Pavlodar,Kazakhstan,null,53.0098426,75.9810961
Jaña Būqtyrma,4490,Şyğys Qazaqstan,Kazakhstan,null,49.629428,83.5186178
Qarjan,4480,Turkıstan,Kazakhstan,null,41.829372,69.713317
Saraphana,4480,Turkıstan,Kazakhstan,null,41.875984,69.4372844
Yntymaq,4476,Almaty,Kazakhstan,null,43.4130459,76.9669525
Dostyq,4471,Batys Qazaqstan,Kazakhstan,null,51.364342,51.520744
Jañatūrmys,4469,Almaty,Kazakhstan,null,43.1823365,76.7825876
Tügısken,4446,Qyzylorda,Kazakhstan,null,43.5973461,67.3999058
Balkaşino,4444,Aqmola,Kazakhstan,null,52.520611,68.7533243
Aqsai,4444,Atyrau,Kazakhstan,null,47.1947657,51.9545893
Tūrbat,4427,Turkıstan,Kazakhstan,null,41.7553065,69.5917795
Örıktı,4421,Almaty,Kazakhstan,null,43.366608,77.399612
Şäiqoryq,4417,Jambyl,Kazakhstan,null,42.955467,71.335381
Malybai,4411,Almaty,Kazakhstan,null,43.4931573,78.4039645
Maitöbe,4403,Turkıstan,Kazakhstan,null,42.520653,70.250061
Jylğa,4402,Turkıstan,Kazakhstan,null,41.7176534,69.012986
Qazybek Bi,4381,Turkıstan,Kazakhstan,null,40.8332134,68.3766168
Besköl,4355,Almaty,Kazakhstan,null,46.1717676,81.0954933
Peremetnoe,4340,Batys Qazaqstan,Kazakhstan,null,51.195168,50.846035
Qūmjota,4334,Jambyl,Kazakhstan,null,42.978611,71.401474
Avat,4314,Almaty,Kazakhstan,null,43.403309,77.267395
Saiqyn,4312,Batys Qazaqstan,Kazakhstan,null,48.813747,46.768414
Qyzylşaryq,4300,Almaty,Kazakhstan,null,43.5303962,78.2765211
Abai,4279,Turkıstan,Kazakhstan,null,40.8986575,68.541727
Qyzylqiia,4271,Turkıstan,Kazakhstan,null,41.6634227,69.3721389
Taipaq,4243,Batys Qazaqstan,Kazakhstan,null,49.037285,51.830154
Sarybūlaq,4232,Jambyl,Kazakhstan,null,43.2532202,74.2968353
Rabat,4228,Turkıstan,Kazakhstan,null,42.058495,69.524307
Şağan,4223,Qyzylorda,Kazakhstan,null,44.887581,64.972511
Aqşi,4218,Almaty,Kazakhstan,null,43.5148743,77.6358004
Stepniak,4212,Aqmola,Kazakhstan,null,52.8312787,70.7869386
Köktöbe,4207,Almaty,Kazakhstan,null,43.364174,77.511909
Aqbai,4203,Turkıstan,Kazakhstan,null,42.4146253,69.7920763
Qarameñdı,4188,Qostanai,Kazakhstan,null,51.657513,64.222992
Sätbaev,4171,Turkıstan,Kazakhstan,null,40.820724,68.265404
Timiriazevo,4167,Soltustık Qazaqstan,Kazakhstan,null,53.7478443,66.4960466
Şalqar,4156,Almaty,Kazakhstan,null,43.1981746,76.5629324
Qyzylqūm,4146,Turkıstan,Kazakhstan,null,41.912216,67.987198
Jıbek Joly,4116,Turkıstan,Kazakhstan,null,42.471272,69.9339504
Qaratöbe,4106,Batys Qazaqstan,Kazakhstan,null,49.690926,53.506786
Äiet,4096,Qostanai,Kazakhstan,null,52.837524,62.52026
Tūğyl,4094,Şyğys Qazaqstan,Kazakhstan,null,47.727528,84.208084
Saryşağan,4083,Qarağandy,Kazakhstan,null,46.1170174,73.6092892
Doskei Auyly,4081,Qarağandy,Kazakhstan,null,49.859524,73.259415
Bidaiköl,4077,Qyzylorda,Kazakhstan,null,44.141167,66.738922
Dostyq,4074,Turkıstan,Kazakhstan,null,41.381851,69.098511
Qosşağyl,4049,Atyrau,Kazakhstan,null,46.848301,53.7976101
Bektöbe,4046,Jambyl,Kazakhstan,null,42.889065,71.279594
Köktöbe,4041,Pavlodar,Kazakhstan,null,51.5303291,77.4680696
Baiseiıt,4032,Almaty,Kazakhstan,null,43.5724869,78.3472339
Qasymbek,4025,Almaty,Kazakhstan,null,43.248264,76.436867
Tşitşerino,4025,Turkıstan,Kazakhstan,null,41.467125,69.233177
Syrdariia,4020,Turkıstan,Kazakhstan,null,42.4203519,68.781023
Jolymbet,4011,Aqmola,Kazakhstan,null,51.745556,71.711021
Kölbastau,4005,Jambyl,Kazakhstan,null,42.607841,70.78299
Talşyq,3988,Soltustık Qazaqstan,Kazakhstan,null,53.6433864,71.8767545
Baqbaqty,3961,Almaty,Kazakhstan,null,44.567997,76.718987
Türıksıb,3958,Jambyl,Kazakhstan,null,42.8292785,71.3999223
Esbol,3953,Atyrau,Kazakhstan,null,48.368294,51.555439
Jıbek Joly,3945,Aqmola,Kazakhstan,null,51.0810966,71.7445851
Şolaqai,3942,Almaty,Kazakhstan,null,44.087502,79.966667
Qazaqstan,3931,Almaty,Kazakhstan,null,43.52002,77.77607
Qabanbai,3929,Şyğys Qazaqstan,Kazakhstan,null,46.0769946,82.0895653
Üşterek,3926,Almaty,Kazakhstan,null,43.237537,76.531662
Temır,3924,Turkıstan,Kazakhstan,null,42.822258,68.431961
Bautino,3903,Mañğystau,Kazakhstan,null,44.542786,50.247673
Besketık,3887,Turkıstan,Kazakhstan,null,40.7252802,68.290707
Altyüi,3881,Almaty,Kazakhstan,null,44.202606,80.143188
Tselinnyi,3878,Turkıstan,Kazakhstan,null,41.796391,67.98912
Aqbūlym,3857,Jambyl,Kazakhstan,null,42.914654,71.481674
Talas,3849,Jambyl,Kazakhstan,null,42.9375,71.470482
Pervomaiskii,3849,Şyğys Qazaqstan,Kazakhstan,null,50.2604851,81.9948339
Aldabergenov,3811,Almaty,Kazakhstan,null,44.906612,78.300186
Şarbūlaq,3810,Turkıstan,Kazakhstan,null,41.7723727,69.4916807
Şūbar,3789,Turkıstan,Kazakhstan,null,42.585461,69.354614
Köksarai,3775,Turkıstan,Kazakhstan,null,42.656147,68.15213
Qaratūryq,3769,Almaty,Kazakhstan,null,43.554394,78.005775
Bestamaq,3749,Aqtöbe,Kazakhstan,null,50.0423388,57.349048
Üştöbe,3734,Qarağandy,Kazakhstan,null,49.773911,73.238266
Qapal,3727,Almaty,Kazakhstan,null,45.124256,79.04644
Hamit Erğaliev,3719,Atyrau,Kazakhstan,null,47.3548469,51.1927223
Şornaq,3718,Turkıstan,Kazakhstan,null,43.3952837,68.0236546
Komsomol,3717,Almaty,Kazakhstan,null,43.4328012,76.8518695
Tömenaryq,3716,Qyzylorda,Kazakhstan,null,44.024773,67.018044
Börlı,3703,Batys Qazaqstan,Kazakhstan,null,51.427292,52.715065
Dubovka,3702,Qarağandy,Kazakhstan,null,49.7355542,72.9078902
Rysqūlov,3701,Almaty,Kazakhstan,null,43.3002671,77.2835398
Nūrlykent,3695,Jambyl,Kazakhstan,null,42.686684,70.833389
Şūbarşi,3691,Aqtöbe,Kazakhstan,null,48.5832616,57.183919
Almaly,3684,Atyrau,Kazakhstan,null,47.253178,51.891201
İsaevo,3681,Almaty,Kazakhstan,null,43.382404,76.74971
Qyzemşek,3658,Turkıstan,Kazakhstan,null,45.266304,68.92321
Baltabai,3651,Almaty,Kazakhstan,null,43.504612,77.539635
Bala Bi,3651,Qyzylorda,Kazakhstan,null,44.341198,66.519684
Ümbetälı Kärıbaev,3649,Almaty,Kazakhstan,null,43.2513516,76.3608656
Bırlık,3647,Jambyl,Kazakhstan,null,43.664036,73.809738
Oktiabr,3647,Qostanai,Kazakhstan,null,52.59536,62.615917
Leninjoly,3643,Turkıstan,Kazakhstan,null,41.337784,69.033119
Jambyl,3636,Almaty,Kazakhstan,null,43.14661,76.182419
Būlar batyr,3635,Jambyl,Kazakhstan,null,42.8803722,75.1835084
Zauyt,3631,Aqmola,Kazakhstan,null,52.4662943,72.0103279
Būlaqty,3629,Almaty,Kazakhstan,null,43.2161377,76.7457052
Ekpındı,3620,Almaty,Kazakhstan,null,43.382561,76.656807
Stepnoe,3618,Jambyl,Kazakhstan,null,43.143299,74.623199
Arys,3572,Turkıstan,Kazakhstan,null,42.60958,68.5730551
Trekino,3563,Batys Qazaqstan,Kazakhstan,null,51.2882999,51.5789563
Jaltyr,3552,Aqmola,Kazakhstan,null,51.6286543,69.834345
Ğabiden Mūstafin,3548,Qarağandy,Kazakhstan,null,50.1198126,73.1636564
Bölek,3535,Almaty,Kazakhstan,null,43.406887,77.420555
Bostandyq,3519,Turkıstan,Kazakhstan,null,41.394279,69.101303
Jemıstı,3510,Turkıstan,Kazakhstan,null,41.5320334,69.3538141
Ūlan,3503,Almaty,Kazakhstan,null,43.294791,76.6790792
Burabai k.,3503,Aqmola,Kazakhstan,null,53.0829947,70.3085972
Köktal,3495,Jambyl,Kazakhstan,null,42.995712,71.436066
Öndırıs,3485,Turkıstan,Kazakhstan,null,41.7403361,69.6411184
Kögerşın,3482,Jambyl,Kazakhstan,null,42.873955,72.517349
Oşaqty,3480,Turkıstan,Kazakhstan,null,41.36824,68.843513
Şaqpaq Baba,3473,Turkıstan,Kazakhstan,null,42.5110452,70.5574898
Jañabazar,3469,Turkıstan,Kazakhstan,null,41.9224889,69.6304481
Şañtöbe,3443,Aqmola,Kazakhstan,null,52.4552325,68.176456
Qoşqarata,3437,Turkıstan,Kazakhstan,null,41.312664,68.932281
Marjanbūlaq,3436,Aqtöbe,Kazakhstan,null,50.2516775,56.848843
Aştşysai,3434,Almaty,Kazakhstan,null,43.555252,77.974007
Dostyq,3430,Turkıstan,Kazakhstan,null,42.05463,68.125114
Qaraqastek,3417,Almaty,Kazakhstan,null,43.128696,76.099213
Novo-Ahmirovo,3409,Şyğys Qazaqstan,Kazakhstan,null,49.931374,82.493935
Aqjal,3405,Qarağandy,Kazakhstan,null,47.747051,74.026794
Alğabas,3405,Qyzylorda,Kazakhstan,null,44.2229491,66.734364
Tūrğyzba,3397,Atyrau,Kazakhstan,null,47.0050793,53.8655839
Almaly,3396,Almaty,Kazakhstan,null,44.2852298,80.3364588
Qarasu,3393,Qostanai,Kazakhstan,null,52.658371,65.484154
Kışı Şağan,3390,Almaty,Kazakhstan,null,44.168655,80.059517
Ülken Aqsu,3390,Almaty,Kazakhstan,null,43.36694,79.610001
Qarağaily,3380,Qarağandy,Kazakhstan,null,49.358673,75.736122
Būlaqty,3375,Almaty,Kazakhstan,null,46.186035,81.093208
Aqtoğai,3373,Qarağandy,Kazakhstan,null,48.3196789,74.9799914
Jaña Ömır,3356,Batys Qazaqstan,Kazakhstan,null,51.0653508,51.5657026
Dostyq,3339,Almaty,Kazakhstan,null,43.5561834,78.0369965
Ruzaevka,3339,Soltustık Qazaqstan,Kazakhstan,null,52.821907,66.952431
Qarakemer,3338,Jambyl,Kazakhstan,null,42.917278,75.323936
Mūqyr,3335,Atyrau,Kazakhstan,null,48.0462032,54.4958009
Aşa,3323,Turkıstan,Kazakhstan,null,43.3870782,68.0131709
Nūrğisa Tılendiev,3322,Almaty,Kazakhstan,null,43.5150541,76.8916531
Quşoqy,3308,Qarağandy,Kazakhstan,null,50.23151,73.40078
Şegen Qodamanov auyly,3278,Qyzylorda,Kazakhstan,null,44.1695095,66.8144046
Ybyrai Jaqaev,3278,Qyzylorda,Kazakhstan,null,44.1726452,66.69455
Almaly,3276,Almaty,Kazakhstan,null,45.450554,79.982597
Köközek,3266,Almaty,Kazakhstan,null,43.351521,76.768852
Jañalyq,3260,Almaty,Kazakhstan,null,43.58137,77.05696
Sarybai Bi,3259,Almaty,Kazakhstan,null,43.193924,76.232452
Bırlık,3248,Almaty,Kazakhstan,null,43.307141,77.1420851
Qyzylqainar,3243,Jambyl,Kazakhstan,null,42.837067,71.517342
Janbai,3231,Atyrau,Kazakhstan,null,47.1810938,50.5614316
Qorğaljyn,3222,Aqmola,Kazakhstan,null,50.5837125,70.0179587
Praporştşikovo,3219,Şyğys Qazaqstan,Kazakhstan,null,50.0444629,82.4670052
Taskesken,3217,Turkıstan,Kazakhstan,null,41.409328,69.015411
Aqsu,3211,Aqmola,Kazakhstan,null,52.4613045,71.9857759
Qainar,3194,Turkıstan,Kazakhstan,null,42.4270458,69.3543455
Aqtoğan,3183,Jambyl,Kazakhstan,null,42.870842,73.10743
Kelıntöbe,3183,Qyzylorda,Kazakhstan,null,43.464367,67.460175
Atyrau,3180,Atyrau,Kazakhstan,null,46.9557417,51.7524442
Aqdala,3175,Turkıstan,Kazakhstan,null,42.467228,68.904243
Bögen,3168,Turkıstan,Kazakhstan,null,42.7380928,68.984785
Dostyq,3163,Turkıstan,Kazakhstan,null,40.713916,68.325607
Qojakent,3152,Qyzylorda,Kazakhstan,null,43.686588,67.308563
Bereke,3123,Atyrau,Kazakhstan,null,47.169419,51.9217399
Qarabas,3122,Qarağandy,Kazakhstan,null,49.573978,72.903198
Taşkensaz,3113,Almaty,Kazakhstan,null,43.4754189,77.4026247
Şoqpartoğai,3110,Atyrau,Kazakhstan,null,47.0451099,53.9216065
Teke,3102,Turkıstan,Kazakhstan,null,43.2326972,68.1203413
Qainar,3097,Jambyl,Kazakhstan,null,43.295929,74.194122
Katonqarağai,3096,Şyğys Qazaqstan,Kazakhstan,null,49.1776001,85.6063821
Qyzylqūm,3096,Turkıstan,Kazakhstan,null,40.9943043,68.2183135
Şıdertı,3092,Pavlodar,Kazakhstan,null,51.7142366,74.6728316
Jüzımdık,3092,Turkıstan,Kazakhstan,null,41.196617,68.799171
Döñ,3089,Aqtöbe,Kazakhstan,null,50.2564012,58.4989618
Qazaqstan,3089,Turkıstan,Kazakhstan,null,41.175365,68.790466
Ūşqyn,3087,Turkıstan,Kazakhstan,null,41.2495295,68.982562
Sümbe,3086,Almaty,Kazakhstan,null,43.3114865,79.4182538
Nūrjanqorğan,3084,Turkıstan,Kazakhstan,null,42.5624625,69.7579189
Qainar,3076,Almaty,Kazakhstan,null,46.087067,81.249367
Dimitrovo,3045,Turkıstan,Kazakhstan,null,41.371693,68.97953
Jalañaş,3033,Almaty,Kazakhstan,null,43.041111,78.641389
Jambyl,3028,Turkıstan,Kazakhstan,null,40.8529929,68.5437333
Hiuaz,3022,Atyrau,Kazakhstan,null,46.6105246,49.0625255
Gülıstan,3020,Turkıstan,Kazakhstan,null,40.704429,68.359893
Qosbūlaq,3019,Turkıstan,Kazakhstan,null,42.5675108,69.7262892
Aqquly,3014,Pavlodar,Kazakhstan,null,51.466458,77.7855099
Eltai,3001,Almaty,Kazakhstan,null,43.369991,76.724091
Matai,3000,Almaty,Kazakhstan,null,45.8991847,78.7190589
Qoğaly,2981,Almaty,Kazakhstan,null,44.482317,78.6555608
Tasqarasu,2981,Almaty,Kazakhstan,null,43.769936,79.451889
Mitşurin,2955,Qostanai,Kazakhstan,null,53.1793244,63.6608326
Aqjaiyq,2943,Batys Qazaqstan,Kazakhstan,null,50.7763852,51.2292044
Bastöbe,2941,Almaty,Kazakhstan,null,45.2685697,77.9918954
Tavritşeskoe,2939,Şyğys Qazaqstan,Kazakhstan,null,50.1712,82.056839
Golovatskii,2931,Almaty,Kazakhstan,null,44.216389,80.01944
Besağaş,2921,Jambyl,Kazakhstan,null,42.810799,71.431244
Bırtılek,2918,Turkıstan,Kazakhstan,null,41.3401476,68.9177143
Örkendı,2915,Turkıstan,Kazakhstan,null,40.8876268,68.3544502
Sütkent,2911,Turkıstan,Kazakhstan,null,41.943565,68.094131
Almaly,2897,Almaty,Kazakhstan,null,43.401398,77.524574
Säken Seifullin,2891,Qarağandy,Kazakhstan,null,48.855301,72.835365
Alaş,2880,Turkıstan,Kazakhstan,null,42.4413306,69.8196361
Hūsaiyn Bijanov,2874,Almaty,Kazakhstan,null,43.5380502,78.3696034
Batan,2866,Almaty,Kazakhstan,null,43.276985,76.654892
Bırlık,2866,Jambyl,Kazakhstan,null,44.0632927,73.5128276
Besqainar,2858,Almaty,Kazakhstan,null,43.215584,77.100464
Saryjaz,2856,Almaty,Kazakhstan,null,42.9105,79.60717
Şülbı,2853,Şyğys Qazaqstan,Kazakhstan,null,50.390991,81.067596
Tşkalovo,2849,Soltustık Qazaqstan,Kazakhstan,null,53.625412,70.43367
Qalqaman,2848,Pavlodar,Kazakhstan,null,51.953449,76.015717
Halyqtardostyğy,2838,Turkıstan,Kazakhstan,null,41.0082782,68.2656808
Kökpektı,2828,Qarağandy,Kazakhstan,null,49.935421,73.284676
Egındıköl,2820,Aqmola,Kazakhstan,null,51.0516007,69.4801963
Jyñğyldy,2820,Mañğystau,Kazakhstan,null,44.1971101,51.7054235
Nūra,2817,Almaty,Kazakhstan,null,43.554615,78.469749
Blagoveştşenka,2806,Soltustık Qazaqstan,Kazakhstan,null,54.369076,66.97139
Diqan Baba,2797,Turkıstan,Kazakhstan,null,41.5093808,69.3549728
Jañajol,2794,Jambyl,Kazakhstan,null,43.501556,73.836281
Firdousi,2782,Turkıstan,Kazakhstan,null,40.6431682,68.5094976
Qaraqūm,2782,Turkıstan,Kazakhstan,null,42.880497,68.919509
Zelenyi Bor a.,2780,Aqmola,Kazakhstan,null,53.1049683,70.3610368
Predgornoe,2780,Şyğys Qazaqstan,Kazakhstan,null,50.261242,82.256035
Nartai Bekejanov,2777,Qyzylorda,Kazakhstan,null,44.1917994,66.7825333
Töle Bi,2776,Almaty,Kazakhstan,null,43.3869478,77.5528719
Jaisañ,2774,Aqtöbe,Kazakhstan,null,50.848034,56.202484
Erkınşılık,2767,Aqmola,Kazakhstan,null,51.41497,72.63504
Äuezov,2766,Şyğys Qazaqstan,Kazakhstan,null,49.710896,81.579475
Tauşyq,2765,Mañğystau,Kazakhstan,null,44.3465058,51.3486586
Ülgılı,2764,Jambyl,Kazakhstan,null,42.987484,71.474068
Marqaköl,2757,Şyğys Qazaqstan,Kazakhstan,null,48.4269057,85.7338403
Jañatalap,2749,Almaty,Kazakhstan,null,43.4739,76.964546
Şırkeilı,2744,Qyzylorda,Kazakhstan,null,44.830219,65.120903
Jetekşı,2740,Pavlodar,Kazakhstan,null,52.3219863,77.1309241
Aqterek,2738,Almaty,Kazakhstan,null,43.2721161,75.485845
Jañaauyl,2712,Turkıstan,Kazakhstan,null,40.727341,68.249458
Erkın,2706,Almaty,Kazakhstan,null,43.44159,77.03874
Babaiqorğan,2694,Turkıstan,Kazakhstan,null,43.561966,68.109276
Baiyrqūm,2688,Turkıstan,Kazakhstan,null,42.119446,68.14167
Nūrmūhamed Esentaev,2688,Turkıstan,Kazakhstan,null,40.9334159,68.4890612
Aştşybūlaq,2685,Almaty,Kazakhstan,null,43.4877698,77.7795629
Qūtarys,2685,Turkıstan,Kazakhstan,null,42.6005617,69.624803
Stantsionnyi,2677,Aqmola,Kazakhstan,null,53.355457,69.49202
Qoñyröleñ,2675,Almaty,Kazakhstan,null,44.276338,79.3007054
Kamenka,2675,Jambyl,Kazakhstan,null,42.913456,72.860909
Köktöbe,2669,Jambyl,Kazakhstan,null,43.699448,73.818336
Aqbastau,2666,Turkıstan,Kazakhstan,null,42.904891,69.672203
Balğabek Qydyrbekūly,2656,Almaty,Kazakhstan,null,43.364349,76.273834
Qaratal,2654,Şyğys Qazaqstan,Kazakhstan,null,47.612946,85.174408
Bozoi,2650,Aqtöbe,Kazakhstan,null,46.2196311,58.8240065
Töñkerıs,2647,Almaty,Kazakhstan,null,43.47699,77.136513
Äulieağaş,2645,Almaty,Kazakhstan,null,44.226667,79.8339272
Boraldai,2645,Turkıstan,Kazakhstan,null,42.7803353,69.6615776
Qoilyq,2641,Almaty,Kazakhstan,null,45.652523,80.24292
Maiaqūm,2634,Turkıstan,Kazakhstan,null,42.864468,68.057472
Amangeldı,2629,Qyzylorda,Kazakhstan,null,44.6054985,65.5924396
Ainatas,2626,Turkıstan,Kazakhstan,null,41.935232,69.7412967
Bekarystan Bi,2617,Qyzylorda,Kazakhstan,null,45.782994,61.5850304
Montaitas,2603,Turkıstan,Kazakhstan,null,42.081199,68.966506
Qaztai Ūltaraqov,2602,Almaty,Kazakhstan,null,43.621159,78.305962
Aqaltyn,2602,Turkıstan,Kazakhstan,null,42.01643,68.025955
Nizamabad,2601,Turkıstan,Kazakhstan,null,42.3388794,69.9701214
Qarasai batyr,2600,Jambyl,Kazakhstan,null,42.8363,75.696167
İnternatsionalnoe,2598,Jambyl,Kazakhstan,null,42.909737,73.247169
Peşkov,2590,Qostanai,Kazakhstan,null,53.732456,62.39222
Novaia Şulba,2589,Şyğys Qazaqstan,Kazakhstan,null,50.543358,81.32579
Kemeñger,2587,Pavlodar,Kazakhstan,null,52.3587238,77.2697854
Aqyrtöbe,2584,Jambyl,Kazakhstan,null,42.990593,72.10434
Ketpen,2583,Almaty,Kazakhstan,null,43.453892,80.354721
Aqaral,2572,Jambyl,Kazakhstan,null,42.857357,73.284317
Naualy,2568,Şyğys Qazaqstan,Kazakhstan,null,47.0014928,81.7500614
Batyr Ata,2555,Turkıstan,Kazakhstan,null,42.5580355,69.1560764
Beibarys,2553,Atyrau,Kazakhstan,null,47.4521988,51.789973
Aqjarma,2552,Qyzylorda,Kazakhstan,null,44.872807,64.767365
Jañğyztöbe,2545,Şyğys Qazaqstan,Kazakhstan,null,49.211071,81.217087
Eñbekşı,2544,Almaty,Kazakhstan,null,43.231548,76.506119
Jauşyqūm,2542,Turkıstan,Kazakhstan,null,41.2918828,68.073585
Qarauyltöbe,2538,Qyzylorda,Kazakhstan,null,44.905842,65.524452
Rodina,2535,Qostanai,Kazakhstan,null,50.274387,66.888496
Ataqonys,2533,Turkıstan,Kazakhstan,null,40.7105372,68.2253144
Syntas,2530,Turkıstan,Kazakhstan,null,41.8925662,69.5654296
Bozaiğyr,2517,Aqmola,Kazakhstan,null,51.47559,71.211052
Mūqry,2510,Almaty,Kazakhstan,null,44.8620325,78.1731162
Bäiterek,2510,Turkıstan,Kazakhstan,null,42.4598137,69.8091459
Örlık,2505,Atyrau,Kazakhstan,null,48.2663907,51.5239207
Pestşanoe,2501,Pavlodar,Kazakhstan,null,52.9994316,76.3043189
Qaiypov,2500,Almaty,Kazakhstan,null,43.5306078,77.7567173
Şyğanaq,2500,Jambyl,Kazakhstan,null,45.1064432,73.975037
Qanağat,2500,Turkıstan,Kazakhstan,null,41.470806,69.262108
Talsuat,2497,Qyzylorda,Kazakhstan,null,44.923382,65.359856
Töñkerıs,2496,Turkıstan,Kazakhstan,null,41.411419,69.157776
Kökmardan,2495,Turkıstan,Kazakhstan,null,42.7726888,68.348057
Eñbek,2494,Almaty,Kazakhstan,null,45.0216361,78.2650442
Sofievka,2494,Aqmola,Kazakhstan,null,51.401173,71.698898
Kellerovka,2487,Soltustık Qazaqstan,Kazakhstan,null,53.8398636,69.3000276
Sümbe,2486,Almaty,Kazakhstan,null,42.930916,80.485435
Jelaevo,2478,Batys Qazaqstan,Kazakhstan,null,51.25843,51.49477
Jañaaryq,2478,Turkıstan,Kazakhstan,null,41.4407358,69.1333129
Qyzylağaş,2468,Almaty,Kazakhstan,null,45.382175,78.730431
Jolbarys Qalşoraev,2466,Turkıstan,Kazakhstan,null,40.600798,68.5177159
Köktoğai,2465,Atyrau,Kazakhstan,null,48.1328958,51.532355
Täñırbergen Jailybaev,2464,Turkıstan,Kazakhstan,null,40.6316072,68.5739564
Plodovoiagodnoe,2463,Jambyl,Kazakhstan,null,42.84507,73.170258
Aqmaia,2463,Qyzylorda,Kazakhstan,null,44.08987,66.865723
Mamyrsu,2462,Şyğys Qazaqstan,Kazakhstan,null,47.9523545,80.3808153
Tekes,2460,Almaty,Kazakhstan,null,42.830818,80.050743
Ülgılı,2456,Turkıstan,Kazakhstan,null,41.9326141,69.6337508
Şipan,2455,Turkıstan,Kazakhstan,null,43.4038504,68.2628359
Petropavlovka,2453,Aqtöbe,Kazakhstan,null,50.5324836,57.4434117
Qūrama,2447,Turkıstan,Kazakhstan,null,41.403973,69.14164
Üşınşı İnternatsional,2443,Qyzylorda,Kazakhstan,null,45.1926847,64.1303367
Damba,2442,Atyrau,Kazakhstan,null,46.9566629,51.7460132
İgılık,2439,Turkıstan,Kazakhstan,null,40.9546967,68.5050349
Ūlytau,2433,Qarağandy,Kazakhstan,null,48.6536253,67.0069227
Sokolovka,2432,Soltustık Qazaqstan,Kazakhstan,null,55.11763,69.203369
Qarajota,2431,Almaty,Kazakhstan,null,43.650185,78.178993
Pugatşevo,2427,Batys Qazaqstan,Kazakhstan,null,51.2065823,52.8967111
Şaqpaqata,2427,Jambyl,Kazakhstan,null,42.571125,70.647499
Sadtşikov,2426,Qostanai,Kazakhstan,null,53.029327,63.484756
Vladimirov,2424,Qostanai,Kazakhstan,null,53.458153,64.03788
Oktiabr,2423,Qostanai,Kazakhstan,null,52.10815,65.673683
Şäşubai,2417,Qarağandy,Kazakhstan,null,46.8117918,75.0288563
Jañatūrmys,2415,Jambyl,Kazakhstan,null,42.8985889,72.9932827
Eñbekşıdihan,2414,Turkıstan,Kazakhstan,null,43.358017,68.360794
Tşeremşanka,2412,Şyğys Qazaqstan,Kazakhstan,null,50.2744895,83.0401719
Taskesken,2404,Şyğys Qazaqstan,Kazakhstan,null,47.224537,80.785606
Atameken,2401,Turkıstan,Kazakhstan,null,40.8709818,68.1378507
Yntaly,2390,Turkıstan,Kazakhstan,null,42.5849204,69.2174594
Yntymaq,2379,Turkıstan,Kazakhstan,null,41.1045156,68.7607988
Qatarköl a.,2377,Aqmola,Kazakhstan,null,52.947968,70.424416
Qoğalyköl,2374,Qyzylorda,Kazakhstan,null,44.773521,65.189423
Belbasar,2370,Jambyl,Kazakhstan,null,43.46817,73.847893
Darhan,2366,Turkıstan,Kazakhstan,null,41.3996653,69.0609421
Diqan,2359,Turkıstan,Kazakhstan,null,40.664038,68.6221719
Bırlık,2358,Qyzylorda,Kazakhstan,null,43.859303,67.451027
Besqūbyr,2353,Turkıstan,Kazakhstan,null,41.321747,68.897194
Aqqala,2352,Turkıstan,Kazakhstan,null,42.3849149,69.9768552
Örkeniet,2351,Turkıstan,Kazakhstan,null,40.8442404,68.4932201
Eltai,2325,Atyrau,Kazakhstan,null,48.5502225,51.6166157
Abai,2325,Qyzylorda,Kazakhstan,null,44.9471039,65.544706
Eñbekşı,2322,Almaty,Kazakhstan,null,43.39972,77.18111
Şaqpaq,2320,Turkıstan,Kazakhstan,null,43.200417,69.365997
Baltaköl,2317,Turkıstan,Kazakhstan,null,43.118073,67.763962
Köktal,2309,Almaty,Kazakhstan,null,43.4601949,77.0611321
Saiaq,2309,Qarağandy,Kazakhstan,null,46.907158,77.353699
Pervoe Maia,2308,Turkıstan,Kazakhstan,null,41.322052,68.908531
Aqseñgır,2307,Almaty,Kazakhstan,null,43.488235,76.279709
Jambyl,2302,Qostanai,Kazakhstan,null,53.320515,63.747738
Mūratbaev,2298,Turkıstan,Kazakhstan,null,41.044151,68.640564
Leningradskoe,2296,Soltustık Qazaqstan,Kazakhstan,null,53.534927,71.546295
Jaiylma,2294,Jambyl,Kazakhstan,null,43.760258,69.782669
Bırlık,2292,Turkıstan,Kazakhstan,null,41.2278734,68.6169881
Toqjailau,2288,Almaty,Kazakhstan,null,45.819912,81.088875
Aqjar,2270,Aqtöbe,Kazakhstan,null,50.2366023,57.9855949
Kenen,2269,Jambyl,Kazakhstan,null,43.422585,75.070122
Eltai,2268,Almaty,Kazakhstan,null,44.9415376,78.2237466
Örnek,2268,Jambyl,Kazakhstan,null,43.084942,70.881668
Amangeldı,2266,Turkıstan,Kazakhstan,null,41.375397,68.918221
Qaraözek,2265,Qyzylorda,Kazakhstan,null,45.0427126,65.2736755
Jañatūrmys,2262,Turkıstan,Kazakhstan,null,41.492958,69.312447
Saryaişyq,2260,Atyrau,Kazakhstan,null,47.5007644,51.715908
Ūialyjar,2260,Turkıstan,Kazakhstan,null,42.4333397,69.2942905
Keñgır,2258,Qarağandy,Kazakhstan,null,47.8405079,67.6139258
Köldı,2257,Almaty,Kazakhstan,null,43.324753,76.708542
Qarabūtaq,2251,Aqtöbe,Kazakhstan,null,49.956577,60.117455
Yntaly,2251,Turkıstan,Kazakhstan,null,43.6471496,67.9453308
Alğa,2248,Jambyl,Kazakhstan,null,43.620476,73.716148
Şymyr,2246,Almaty,Kazakhstan,null,44.936878,78.426514
Qoljat,2244,Almaty,Kazakhstan,null,43.509441,80.674171
Novopokrov,2233,Şyğys Qazaqstan,Kazakhstan,null,50.669445,80.46833
Qauynşy,2229,Turkıstan,Kazakhstan,null,41.2645179,69.0203204
Şaldar,2227,Turkıstan,Kazakhstan,null,42.8206195,69.2452812
Baiqonys,2225,Turkıstan,Kazakhstan,null,40.7575256,68.1690614
Bäigeqūm,2224,Qyzylorda,Kazakhstan,null,44.3139074,66.4625567
Zortöbe,2216,Turkıstan,Kazakhstan,null,41.476265,69.327377
Qarasu,2212,Almaty,Kazakhstan,null,43.4249467,77.0394368
Joğarğy Berezovka,2212,Şyğys Qazaqstan,Kazakhstan,null,50.277526,82.2200748
Abibola,2210,Turkıstan,Kazakhstan,null,40.7922696,68.3494779
Qaratöbe,2210,Turkıstan,Kazakhstan,null,41.080368,68.677681
Jañaesıl,2207,Aqmola,Kazakhstan,null,51.3004706,70.7267423
Mahambet,2206,Batys Qazaqstan,Kazakhstan,null,51.389664,51.300655
Damsa,2205,Aqmola,Kazakhstan,null,51.666806,71.0400675
Temır,2202,Aqtöbe,Kazakhstan,null,49.1425746,57.1259849
N.Iliiasov,2202,Qyzylorda,Kazakhstan,null,44.9102249,65.1014177
Asan,2199,Batys Qazaqstan,Kazakhstan,null,51.277191,51.42033
Aqqainar,2194,Almaty,Kazakhstan,null,43.167027,76.046455
Qairat,2191,Jambyl,Kazakhstan,null,42.6036463,70.7353374
Araily,2180,Aqmola,Kazakhstan,null,51.297096,71.00766
Keñes,2180,Jambyl,Kazakhstan,null,43.2226435,71.3720144
Besaryq,2180,Qyzylorda,Kazakhstan,null,44.695079,65.3851811
Köktau,2174,Aqtöbe,Kazakhstan,null,50.476139,59.081547
Han Ordasy,2168,Batys Qazaqstan,Kazakhstan,null,48.769749,47.430492
Bobrovka,2167,Şyğys Qazaqstan,Kazakhstan,null,50.167789,82.720642
Amangeldı,2163,Almaty,Kazakhstan,null,43.471462,77.351036
Dür Oñğar,2147,Qyzylorda,Kazakhstan,null,45.265606,64.212753
Şijağa,2143,Qyzylorda,Kazakhstan,null,46.943806,61.616585
Qarasaz,2141,Jambyl,Kazakhstan,null,42.633652,70.683853
Jasqairat,2137,Atyrau,Kazakhstan,null,48.9476341,53.5454778
Yntymaq,2129,Almaty,Kazakhstan,null,43.169559,76.346313
Egındıbūlaq,2128,Qarağandy,Kazakhstan,null,48.826376,75.2897358
Älken Ospanov,2125,Turkıstan,Kazakhstan,null,40.8626411,68.4222507
Üñgırtas,2124,Almaty,Kazakhstan,null,43.275761,76.029861
Qarağūr,2121,Turkıstan,Kazakhstan,null,44.140663,68.112915
Şien,2120,Almaty,Kazakhstan,null,43.149494,75.921799
Dostyq,2118,Turkıstan,Kazakhstan,null,42.1620992,69.8554515
Jezdı,2114,Qarağandy,Kazakhstan,null,48.067322,67.045029
Ekıaşa,2113,Almaty,Kazakhstan,null,45.382778,80.13472
Orly,2113,Atyrau,Kazakhstan,null,46.5995748,49.2052638
Lepsı,2111,Almaty,Kazakhstan,null,46.236942,78.935387
Özerkı,2111,Şyğys Qazaqstan,Kazakhstan,null,50.377579,80.488586
Abai,2108,Qyzylorda,Kazakhstan,null,47.249584,62.345833
Şağalaly,2106,Aqmola,Kazakhstan,null,53.167755,69.126442
Qostoğan,2106,Jambyl,Kazakhstan,null,42.838623,73.382607
Qaqpatas,2105,Jambyl,Kazakhstan,null,43.226505,74.393768
Qarabūlaq,2097,Şyğys Qazaqstan,Kazakhstan,null,47.551025,84.685493
Haidar,2097,Turkıstan,Kazakhstan,null,40.6736242,68.3243394
Qasqasu,2094,Turkıstan,Kazakhstan,null,42.224792,70.176803
Evgenevka,2085,Pavlodar,Kazakhstan,null,51.962341,76.766731
İujnyi,2084,Qarağandy,Kazakhstan,null,49.358036,72.905922
Taqyrköl,2082,Qyzylorda,Kazakhstan,null,44.053425,67.069183
Lesnovka,2080,Almaty,Kazakhstan,null,44.293446,79.902367
Tamdy,2079,Aqtöbe,Kazakhstan,null,49.817894,57.345936
Tşistopole,2078,Soltustık Qazaqstan,Kazakhstan,null,52.561768,67.250694
Nūrlyjol,2076,Turkıstan,Kazakhstan,null,41.450645,69.11988
Qyrbaltabai,2074,Almaty,Kazakhstan,null,43.585335,77.491798
Aqköl,2073,Jambyl,Kazakhstan,null,43.430412,70.776749
Baqty,2068,Şyğys Qazaqstan,Kazakhstan,null,46.659008,82.734589
Nūrjau,2065,Atyrau,Kazakhstan,null,46.6032892,49.1301026
Aidarly,2065,Jambyl,Kazakhstan,null,43.953598,73.577263
Köksu,2060,Almaty,Kazakhstan,null,45.001022,77.92244
İakor,2060,Soltustık Qazaqstan,Kazakhstan,null,54.959206,69.034576
Jabağyly,2058,Turkıstan,Kazakhstan,null,42.439025,70.475753
Qostöbe,2056,Jambyl,Kazakhstan,null,42.963657,71.468452
Alğa,2051,Atyrau,Kazakhstan,null,47.4210028,51.8712616
Bereke,2051,Turkıstan,Kazakhstan,null,41.372555,68.79792
Aryqbalyq,2050,Soltustık Qazaqstan,Kazakhstan,null,52.953907,68.198669
Yntaly,2050,Turkıstan,Kazakhstan,null,40.7017034,68.4239389
Bırlıküstem,2047,Jambyl,Kazakhstan,null,43.546692,73.85733
Besaryq,2046,Qyzylorda,Kazakhstan,null,43.689087,67.767357
Kökebel,2045,Turkıstan,Kazakhstan,null,41.9551225,69.7325814
Qūmkent,2038,Turkıstan,Kazakhstan,null,43.769985,69.613602
Qūmaryq,2036,Jambyl,Kazakhstan,null,42.931152,72.430428
Qyrğyzsai,2035,Almaty,Kazakhstan,null,43.33268,79.48069
Dolan,2034,Almaty,Kazakhstan,null,43.18964,76.684471
Qarasai,2032,Almaty,Kazakhstan,null,43.390274,77.488525
Bostan,2028,Mañğystau,Kazakhstan,null,43.4563567,53.0207311
Aqjıgıt,2025,Mañğystau,Kazakhstan,null,45.037197,55.754574
Aqtam,2023,Almaty,Kazakhstan,null,43.438694,79.820198
Tegermen,2023,Almaty,Kazakhstan,null,43.397781,79.711113
Tastūmsyq,2023,Turkıstan,Kazakhstan,null,42.5557911,70.2423656
Köktöbe,2018,Turkıstan,Kazakhstan,null,42.6486383,69.4330787
Mämbet,2017,Almaty,Kazakhstan,null,44.839344,78.283485
Petrovka,2017,Qarağandy,Kazakhstan,null,50.0906087,73.4969778
Jañadäuır,2017,Turkıstan,Kazakhstan,null,41.128391,68.730255
Būqarbai batyr,2016,Qyzylorda,Kazakhstan,null,44.9914996,64.5988058
Jeñıs,2015,Turkıstan,Kazakhstan,null,42.814064,68.966461
Jeñıstıñ 40 Jyldyğy,2014,Turkıstan,Kazakhstan,null,40.8811167,68.139707
Kosmos,2010,Almaty,Kazakhstan,null,43.501011,77.263962
Sarybastau,2009,Almaty,Kazakhstan,null,42.97979,80.275154
Qūrmanğazy,2007,Atyrau,Kazakhstan,null,46.9686975,51.7754408
Bestam,2007,Qyzylorda,Kazakhstan,null,44.286224,66.723221
Kökjyra,2006,Şyğys Qazaqstan,Kazakhstan,null,47.8178908,82.6112036
Dostyq,2005,Turkıstan,Kazakhstan,null,41.229328,68.979934
Aqjol,2002,Turkıstan,Kazakhstan,null,40.6671649,68.5254817
Bozanbai,2000,Şyğys Qazaqstan,Kazakhstan,null,49.531586,82.409721
Şūqyrsai,1998,Turkıstan,Kazakhstan,null,41.3651667,68.9323047
Mädımar,1997,Jambyl,Kazakhstan,null,43.170673,71.466133
Asy-Sağa,1993,Almaty,Kazakhstan,null,43.4678008,78.3434265
Sūlutöbe,1992,Qyzylorda,Kazakhstan,null,44.635334,66.037308
Amanötkel,1985,Qyzylorda,Kazakhstan,null,46.111561,61.546532
Jarmyş,1984,Mañğystau,Kazakhstan,null,44.149212,52.457615
Jaisañ,1978,Almaty,Kazakhstan,null,43.4477159,76.2717967
Keñes,1977,Jambyl,Kazakhstan,null,42.966553,73.501373
Aqqorğan,1977,Turkıstan,Kazakhstan,null,41.3550053,68.9200013
Qūrban Ata,1972,Turkıstan,Kazakhstan,null,40.7988227,68.3435469
Korneevka,1969,Soltustık Qazaqstan,Kazakhstan,null,54.00486,68.421883
Mai,1968,Qostanai,Kazakhstan,null,52.82914,62.643955
Aimen,1966,Almaty,Kazakhstan,null,43.414165,77.476334
Jarsuat,1964,Atyrau,Kazakhstan,null,48.2625947,51.5979986
Aqqūm,1961,Qyzylorda,Kazakhstan,null,44.9171806,64.7095816
Juantöbe,1959,Turkıstan,Kazakhstan,null,44.763718,68.831017
Qazaqstan,1956,Almaty,Kazakhstan,null,46.19685,81.020721
Jañajol,1953,Turkıstan,Kazakhstan,null,40.7623728,68.4258673
Mädeniet,1951,Qyzylorda,Kazakhstan,null,44.867199,64.401939
Tañdai,1943,Atyrau,Kazakhstan,null,47.549278,51.513214
Bozsu,1943,Turkıstan,Kazakhstan,null,40.973056,68.698333
Qaraşoqy,1942,Almaty,Kazakhstan,null,44.101494,77.933182
Aqtas,1938,Almaty,Kazakhstan,null,43.3856825,77.2301101
Orazaq,1937,Aqmola,Kazakhstan,null,50.9375227,70.7066356
Maqtajan,1937,Turkıstan,Kazakhstan,null,40.7626062,68.5397419
Köktūma,1935,Almaty,Kazakhstan,null,45.868057,81.646385
Qaraoi,1933,Almaty,Kazakhstan,null,45.855492,74.785072
Basqūnşy,1933,Almaty,Kazakhstan,null,44.3374195,80.3819046
Vozvyşenka,1932,Soltustık Qazaqstan,Kazakhstan,null,54.437664,70.941399
Asubūlaq,1932,Şyğys Qazaqstan,Kazakhstan,null,49.5405421,82.9965908
Arai,1932,Turkıstan,Kazakhstan,null,40.9551886,68.2914661
Qoñyrat,1931,Turkıstan,Kazakhstan,null,40.820487,68.5478564
Jūmeken,1930,Atyrau,Kazakhstan,null,46.6252149,49.3423462
Qyzan,1929,Mañğystau,Kazakhstan,null,44.889339,52.674557
Kışı Baiserke,1927,Almaty,Kazakhstan,null,43.4910427,77.0563844
Jañadala,1927,Turkıstan,Kazakhstan,null,40.9450605,68.3519125
Bereke,1924,Turkıstan,Kazakhstan,null,41.420229,69.0814515
Kalininskoe,1913,Batys Qazaqstan,Kazakhstan,null,51.184219,50.860538
Myrzaşoqy,1913,Turkıstan,Kazakhstan,null,40.7837771,68.130114
Aqdala,1911,Almaty,Kazakhstan,null,44.832111,76.229645
Tūştşyqūdyq,1908,Mañğystau,Kazakhstan,null,44.7348537,51.9644091
Kamystybas,1904,Qyzylorda,Kazakhstan,null,46.194126,61.953632
Jañajol,1904,Turkıstan,Kazakhstan,null,42.0574048,69.8946133
Tereñözek,1901,Jambyl,Kazakhstan,null,42.979687,72.068489
Aqbastau,1898,Turkıstan,Kazakhstan,null,42.3879921,69.8427832
Jylandy,1894,Atyrau,Kazakhstan,null,46.625439,48.646618
Bırlık,1893,Almaty,Kazakhstan,null,44.703465,76.73172
Ozernoe,1891,Qostanai,Kazakhstan,null,53.449425,63.291744
Jarly,1889,Aqtöbe,Kazakhstan,null,48.5349719,55.5907639
Avat,1886,Almaty,Kazakhstan,null,43.381672,79.661667
Bahar,1885,Almaty,Kazakhstan,null,43.57917,79.455276
Vydriha,1885,Şyğys Qazaqstan,Kazakhstan,null,50.5332081,82.1622357
Saiötes,1883,Mañğystau,Kazakhstan,null,44.327709,53.533142
Temırbek Jürgenov,1883,Qyzylorda,Kazakhstan,null,44.877472,64.289795
Qajymūqan,1882,Turkıstan,Kazakhstan,null,42.6035311,69.3058991
Alğa,1880,Atyrau,Kazakhstan,null,46.6093405,49.4328409
İmantau,1877,Soltustık Qazaqstan,Kazakhstan,null,52.9782974,68.3600604
Aq Üi,1877,Turkıstan,Kazakhstan,null,41.489582,69.103638
Dostyq,1875,Almaty,Kazakhstan,null,45.2296994,77.9852372
Egızqūm,1875,Turkıstan,Kazakhstan,null,42.093258,68.016106
Eset batyr,1874,Qyzylorda,Kazakhstan,null,44.806038,64.625359
Pervomai,1873,Qostanai,Kazakhstan,null,53.804222,64.153786
Noğaibai,1871,Jambyl,Kazakhstan,null,43.131359,74.846886
Qarasaz,1869,Almaty,Kazakhstan,null,43.045956,79.87899
Novoiamyşevo,1865,Pavlodar,Kazakhstan,null,51.9161267,77.3272818
Jañaryq,1865,Qyzylorda,Kazakhstan,null,43.831886,67.170967
Aqbūlaq,1862,Turkıstan,Kazakhstan,null,42.3865711,69.3415832
Oiyq,1861,Jambyl,Kazakhstan,null,43.781734,70.955589
Moiynty,1860,Qarağandy,Kazakhstan,null,47.2227211,73.3554614
Kökbūlaq,1859,Turkıstan,Kazakhstan,null,41.0579831,68.6571483
Şūqyrbūlaq,1854,Turkıstan,Kazakhstan,null,42.5302624,70.3105781
Alatau,1853,Turkıstan,Kazakhstan,null,42.1471749,70.0158273
Äbdığappar,1847,Qyzylorda,Kazakhstan,null,43.798412,67.126068
Qainar,1842,Almaty,Kazakhstan,null,43.15834,76.447891
Kerşetas,1841,Turkıstan,Kazakhstan,null,42.497643,69.976906
Şanhanai,1838,Almaty,Kazakhstan,null,44.2463986,78.2497563
Ainabūlaq,1836,Şyğys Qazaqstan,Kazakhstan,null,47.504299,84.992805
Sunaqata,1831,Qyzylorda,Kazakhstan,null,44.138691,66.978226
Seifullin,1830,Turkıstan,Kazakhstan,null,40.9404985,68.2516405
Tuğanbai,1829,Almaty,Kazakhstan,null,43.707794,77.270958
Jolbasşy,1824,Turkıstan,Kazakhstan,null,41.395584,68.980324
Süiındık,1823,Atyrau,Kazakhstan,null,48.1313144,47.6688682
Qairat,1822,Almaty,Kazakhstan,null,43.516552,78.356071
Kielıtas,1821,Turkıstan,Kazakhstan,null,42.1550368,69.8143816
Novonejin,1820,Qostanai,Kazakhstan,null,52.532204,64.034866
Qyzyldihan,1817,Turkıstan,Kazakhstan,null,41.735515,69.585769
Küreñbel,1816,Jambyl,Kazakhstan,null,42.7286734,70.531857
Baimyrza,1810,Qarağandy,Kazakhstan,null,50.218941,72.893448
Jañaqazan,1809,Batys Qazaqstan,Kazakhstan,null,48.932762,49.605484
Oktiabr,1809,Qostanai,Kazakhstan,null,53.2124018,63.8741494
Qyzyljar,1808,Pavlodar,Kazakhstan,null,52.4592861,76.6621144
Aqjar,1807,Qyzylorda,Kazakhstan,null,45.083298,64.084785
Bozai,1805,Turkıstan,Kazakhstan,null,41.5940645,68.326566
Jañaaryq,1804,Turkıstan,Kazakhstan,null,41.4563843,69.2778817
Samsy,1802,Almaty,Kazakhstan,null,43.315201,76.101273
Qaraağaşty,1798,Turkıstan,Kazakhstan,null,42.5233248,70.3830528
Lugansk,1796,Pavlodar,Kazakhstan,null,52.6404462,77.3338158
Pribrejnoe,1793,Soltustık Qazaqstan,Kazakhstan,null,54.819756,69.090256
Myrzatai,1790,Jambyl,Kazakhstan,null,43.080063,71.452667
Aqbiık,1790,Turkıstan,Kazakhstan,null,42.5255152,70.440045
Kotiaevka,1789,Atyrau,Kazakhstan,null,46.5465154,48.7644061
Terektı,1784,Almaty,Kazakhstan,null,45.826099,80.709526
Ştşerbakov,1784,Qostanai,Kazakhstan,null,53.173206,64.20903
Syrymbet,1781,Almaty,Kazakhstan,null,44.857796,78.683144
Moiynqūm,1780,Jambyl,Kazakhstan,null,43.804718,73.681137
Jañatalap,1778,Turkıstan,Kazakhstan,null,41.473175,69.093231
Rostovka,1776,Qarağandy,Kazakhstan,null,50.0476494,72.6847428
Safonovka,1774,Atyrau,Kazakhstan,null,46.50243,48.917027
Tasqūlaq,1773,Turkıstan,Kazakhstan,null,41.452274,69.308792
Qaratöbe,1772,Turkıstan,Kazakhstan,null,42.2889611,70.2362394
Qyryqqūdyq,1771,Almaty,Kazakhstan,null,44.17194,80.117218
Kökdönen,1771,Jambyl,Kazakhstan,null,42.919056,72.575867
Tegısşıl,1770,Turkıstan,Kazakhstan,null,41.446564,69.033211
Şağa,1770,Turkıstan,Kazakhstan,null,43.317073,68.490615
Aiyrtau,1769,Şyğys Qazaqstan,Kazakhstan,null,49.8362757,82.2667558
Aqkemer,1767,Aqtöbe,Kazakhstan,null,49.65477,57.340504
Qūdaibergen Pernebaev,1766,Turkıstan,Kazakhstan,null,40.8040483,68.5458897
Jasörken,1765,Jambyl,Kazakhstan,null,42.8057655,71.564897
Şalqiia,1765,Qyzylorda,Kazakhstan,null,43.953831,67.4207518
Joğarğyoba,1764,Şyğys Qazaqstan,Kazakhstan,null,50.4783047,82.4197465
Alğabas,1764,Turkıstan,Kazakhstan,null,40.7151757,68.5311699
Qoñyrat,1763,Qarağandy,Kazakhstan,null,46.964844,74.987457
Berıktas,1760,Almaty,Kazakhstan,null,43.263603,75.706291
Jalğyzqūdyq,1758,Aqmola,Kazakhstan,null,50.68293,71.037636
Tögısken,1758,Qarağandy,Kazakhstan,null,48.372658,69.993057
Tüktıbaev,1758,Qyzylorda,Kazakhstan,null,45.7354082,61.4808578
Momynai,1758,Turkıstan,Kazakhstan,null,42.1784161,69.9452734
Sarytoğai,1756,Atyrau,Kazakhstan,null,47.7231946,51.5841284
Jetıbai,1756,Jambyl,Kazakhstan,null,43.116493,71.451309
Kerbūlaq,1754,Almaty,Kazakhstan,null,43.9354117,77.5978786
Kışı Diqan,1754,Almaty,Kazakhstan,null,43.502781,80.458611
Amangeldı,1754,Atyrau,Kazakhstan,null,46.9615252,51.7595529
Jerūiyq,1750,Almaty,Kazakhstan,null,44.1997616,79.9808651
Zaporoje,1749,Aqmola,Kazakhstan,null,51.611546,67.423393
Qojatoğai,1748,Turkıstan,Kazakhstan,null,42.034214,68.202843
Qainar,1746,Almaty,Kazakhstan,null,42.8615742,79.8729336
Ekpın,1736,Şyğys Qazaqstan,Kazakhstan,null,47.783333,82.73333
Östemır,1735,Almaty,Kazakhstan,null,43.6301892,77.2634052
Aqtöbe,1734,Turkıstan,Kazakhstan,null,42.7995415,68.716135
Moiyldy,1733,Pavlodar,Kazakhstan,null,52.3878986,77.0668014
Ütırtöbe,1730,Turkıstan,Kazakhstan,null,40.9836563,68.3474921
Nūresıl,1729,Aqmola,Kazakhstan,null,51.212666,71.116837
Tūrmağanbet,1728,Qyzylorda,Kazakhstan,null,45.073559,63.936928
Qaraqoğa,1726,Soltustık Qazaqstan,Kazakhstan,null,54.904881,70.816818
Qoğam,1724,Turkıstan,Kazakhstan,null,42.82576,68.281197
Ştşapovo,1723,Batys Qazaqstan,Kazakhstan,null,51.010624,51.193359
Tartoğai,1723,Qyzylorda,Kazakhstan,null,44.450172,66.254807
Şämşı Qaldaiaqov,1722,Turkıstan,Kazakhstan,null,42.5932168,68.6079024
Novokubanka,1721,Aqmola,Kazakhstan,null,51.671604,70.72995
Qarakemer,1718,Jambyl,Kazakhstan,null,43.082664,71.074089
Jūmahan Balapanov,1717,Almaty,Kazakhstan,null,45.994225,80.726341
Jañatırşılık,1715,Turkıstan,Kazakhstan,null,41.2526859,68.6365947
Bäiterek,1713,Jambyl,Kazakhstan,null,42.607864,71.095818
Abai,1713,Turkıstan,Kazakhstan,null,40.9435676,68.2902403
Bereke,1712,Turkıstan,Kazakhstan,null,40.7318483,68.4693664
Novouzenka,1711,Qarağandy,Kazakhstan,null,49.8798428,72.9971601
Qaratal,1708,Almaty,Kazakhstan,null,44.887508,78.712975
Jaqsylyq,1708,Jambyl,Kazakhstan,null,42.911095,72.641174
Troebrat,1708,Qostanai,Kazakhstan,null,54.4362736,66.0703126
Qarqara,1706,Almaty,Kazakhstan,null,42.892696,79.238518
Aqdala,1705,Almaty,Kazakhstan,null,43.32778,77.20083
Qiialy,1705,Soltustık Qazaqstan,Kazakhstan,null,54.200649,69.649261
Şūbarqūdyq,1703,Aqtöbe,Kazakhstan,null,49.1431517,56.4820258
Bırlık,1699,Atyrau,Kazakhstan,null,46.4905868,48.9965745
Aqbastau,1698,Almaty,Kazakhstan,null,43.521763,77.482529
Rahymjan Qoşqarbaev,1697,Aqmola,Kazakhstan,null,50.821102,71.332291
Qaraköl,1695,Şyğys Qazaqstan,Kazakhstan,null,46.9393029,80.749038
Bäiterek,1693,Turkıstan,Kazakhstan,null,41.298122,68.884293
İırjar,1690,Turkıstan,Kazakhstan,null,40.897022,68.488457
Üşaral,1686,Jambyl,Kazakhstan,null,43.875748,70.522728
Sağaşilı,1684,Aqtöbe,Kazakhstan,null,49.3393513,57.0598666
Älı,1682,Almaty,Kazakhstan,null,43.564079,77.032692
Sarybel,1682,Almaty,Kazakhstan,null,44.42667,80.058609
Abat,1681,Turkıstan,Kazakhstan,null,40.7866526,68.4259488
Üşterek,1680,Pavlodar,Kazakhstan,null,52.0167139,76.8014032
Tarhanka,1680,Şyğys Qazaqstan,Kazakhstan,null,50.115421,82.951355
Aştşysai,1677,Turkıstan,Kazakhstan,null,43.550121,68.906891
Maitöbe,1676,Jambyl,Kazakhstan,null,43.011902,70.57827
Aqsu,1676,Qyzylorda,Kazakhstan,null,45.051296,64.699036
Oktiabr,1675,Şyğys Qazaqstan,Kazakhstan,null,49.62682,83.589432
Senek,1668,Mañğystau,Kazakhstan,null,43.364754,53.388226
Bäiterek,1666,Soltustık Qazaqstan,Kazakhstan,null,54.7371426,69.0677151
Daiyr,1665,Şyğys Qazaqstan,Kazakhstan,null,47.6236204,84.9876667
Seifullin,1664,Qyzylorda,Kazakhstan,null,45.072918,64.9431
Nūrly,1663,Almaty,Kazakhstan,null,43.653214,78.514198
Sūrat,1663,Jambyl,Kazakhstan,null,42.820904,73.359138
Hanaryq,1662,Turkıstan,Kazakhstan,null,42.296718,70.154487
Kökqainar,1659,Jambyl,Kazakhstan,null,43.35038,74.092705
Basşi,1658,Almaty,Kazakhstan,null,44.1595689,78.7530072
Jarqamys,1657,Aqtöbe,Kazakhstan,null,47.9357331,56.452612
Silantev,1655,Qostanai,Kazakhstan,null,53.094158,64.262962
Saryjal,1650,Şyğys Qazaqstan,Kazakhstan,null,49.6000366,78.7388449
Altai,1648,Şyğys Qazaqstan,Kazakhstan,null,50.2466971,82.3617873
Myñbūlaq,1648,Turkıstan,Kazakhstan,null,43.2211272,69.0123366
Jana Şılık,1647,Turkıstan,Kazakhstan,null,42.9009772,68.8096261
İjevskoe,1643,Aqmola,Kazakhstan,null,50.8799531,72.1507857
Pokrovka,1643,Soltustık Qazaqstan,Kazakhstan,null,54.3010634,68.3552371
Qyzylsengır,1641,Turkıstan,Kazakhstan,null,41.6688727,69.4571971
Jalqamys,1639,Almaty,Kazakhstan,null,43.5602312,77.1589943
Jartytöbe,1637,Turkıstan,Kazakhstan,null,43.582584,69.245895
Toquşy,1634,Soltustık Qazaqstan,Kazakhstan,null,54.85788,69.717262
Jidelı,1632,Turkıstan,Kazakhstan,null,42.1662944,68.1170926
Jaipaq,1629,Almaty,Kazakhstan,null,46.018372,81.274925
Tauqaratūryq,1629,Almaty,Kazakhstan,null,43.494572,78.019539
Tūrpan,1629,Almaty,Kazakhstan,null,44.336391,80.056671
Qūmtiym,1629,Turkıstan,Kazakhstan,null,43.3665765,68.2282305
Talapty,1626,Turkıstan,Kazakhstan,null,40.8804525,68.3245953
Rahym Säbdenov,1623,Jambyl,Kazakhstan,null,42.9764892,72.79548
Qūlandy,1623,Mañğystau,Kazakhstan,null,43.2909415,53.0161943
Atbūlaq,1622,Turkıstan,Kazakhstan,null,42.071851,69.572811
Aqtöbe,1621,Qyzylorda,Kazakhstan,null,45.147411,64.151085
Qaraspan,1620,Turkıstan,Kazakhstan,null,42.4938716,69.0658949
Jıñışke,1619,Turkıstan,Kazakhstan,null,41.904686,69.460114
Uşanovo,1618,Şyğys Qazaqstan,Kazakhstan,null,49.964979,82.7391567
Qaraözek,1617,Turkıstan,Kazakhstan,null,40.8616675,68.1842422
Mūğaljar,1615,Aqtöbe,Kazakhstan,null,48.5854665,58.4682758
Mäskeu,1615,Qostanai,Kazakhstan,null,53.428288,63.204109
Qyzyläuıt,1613,Jambyl,Kazakhstan,null,43.415348,70.441444
Baspaqköl,1611,Qyzylorda,Kazakhstan,null,43.357944,67.572136
Körıktı,1611,Turkıstan,Kazakhstan,null,40.8537836,68.3026692
Eñbekşı,1610,Almaty,Kazakhstan,null,44.320831,79.888893
Bisen,1608,Batys Qazaqstan,Kazakhstan,null,48.991619,47.663345
Eñbekşı,1606,Qyzylorda,Kazakhstan,null,44.237778,66.84066
Dihanköl,1606,Turkıstan,Kazakhstan,null,42.1949355,70.1212704
Şaldai,1605,Pavlodar,Kazakhstan,null,51.9257903,78.8162429
Maqtaly,1604,Turkıstan,Kazakhstan,null,40.9458923,68.1666822
Eset Batyr Kökıūly,1603,Aqtöbe,Kazakhstan,null,49.8724489,57.5406376
Baluan Şolaq,1603,Jambyl,Kazakhstan,null,43.835548,73.763191
Yntaly,1602,Turkıstan,Kazakhstan,null,41.63427,69.371552
Şekerbūlaq,1600,Turkıstan,Kazakhstan,null,43.472171,68.317237
Sağyr,1599,Şyğys Qazaqstan,Kazakhstan,null,49.718849,82.660645
Begımbet,1597,Aqtöbe,Kazakhstan,null,47.0921491,59.0682785
Köpjasar,1597,Batys Qazaqstan,Kazakhstan,null,49.171944,50.450481
Şırkın,1595,Turkıstan,Kazakhstan,null,42.4780912,69.6803838
Balatopar,1593,Almaty,Kazakhstan,null,45.052654,74.616493
Jambyl,1591,Turkıstan,Kazakhstan,null,41.287697,68.871719
Tasşağyl,1590,Atyrau,Kazakhstan,null,48.8763377,52.9690575
Şeñgeldı,1589,Turkıstan,Kazakhstan,null,41.8617088,68.9969551
Beles,1582,Batys Qazaqstan,Kazakhstan,null,51.267605,51.042912
Baiyldyr,1582,Turkıstan,Kazakhstan,null,43.5525318,68.4836314
Kereiıt,1582,Turkıstan,Kazakhstan,null,42.5852231,69.9769234
Peterfeld,1579,Soltustık Qazaqstan,Kazakhstan,null,54.912373,68.887779
Eltai,1579,Şyğys Qazaqstan,Kazakhstan,null,46.884884,81.598763
Bäigetöbe,1577,Atyrau,Kazakhstan,null,47.6359969,53.3378076
Yntymaq,1576,Almaty,Kazakhstan,null,44.990849,78.290512
Almaly,1576,Qyzylorda,Kazakhstan,null,44.239918,66.625641
Jangeldin,1575,Atyrau,Kazakhstan,null,48.954458,53.7334318
Besterek,1571,Şyğys Qazaqstan,Kazakhstan,null,47.1650803,81.6207802
Jañatūrmys,1570,Jambyl,Kazakhstan,null,43.210762,74.561371
Qyzyljar,1570,Turkıstan,Kazakhstan,null,42.9593121,68.9792918
Jüzımdık,1568,Turkıstan,Kazakhstan,null,40.9888658,68.2668782
Tañbalytas,1567,Almaty,Kazakhstan,null,43.578072,75.427223
Dardamty,1567,Almaty,Kazakhstan,null,43.477501,80.068893
Tabysty,1567,Turkıstan,Kazakhstan,null,40.777214,68.534133
Aqjar,1566,Şyğys Qazaqstan,Kazakhstan,null,47.078342,81.589577
Marinovka,1564,Aqmola,Kazakhstan,null,51.7872214,69.1587969
Ernazar,1563,Jambyl,Kazakhstan,null,43.134541,70.840637
Jambyl,1563,Turkıstan,Kazakhstan,null,42.9850513,69.3184413
Alaş,1563,Turkıstan,Kazakhstan,null,40.7262668,68.5617471
Keñesşılı,1563,Turkıstan,Kazakhstan,null,40.6940778,68.5934829
Bödene,1560,Atyrau,Kazakhstan,null,48.3956433,51.6473683
Naberejnoe,1560,Pavlodar,Kazakhstan,null,52.674999,76.712776
Äbdılda Täjıbaev,1558,Qyzylorda,Kazakhstan,null,44.258209,66.686722
Ketebai,1554,Turkıstan,Kazakhstan,null,40.8464681,68.2304786
Melovye Gorki,1553,Batys Qazaqstan,Kazakhstan,null,51.138824,51.349831
Bostandyq,1551,Batys Qazaqstan,Kazakhstan,null,49.62397,48.882313
Jambyl,1551,Turkıstan,Kazakhstan,null,40.8499059,68.4020413
Köşqorğan,1551,Turkıstan,Kazakhstan,null,43.373253,68.488037
Sauran,1549,Turkıstan,Kazakhstan,null,43.4375581,67.9221153
Primore,1547,Atyrau,Kazakhstan,null,46.5499921,49.2080235
Būldyrty,1547,Batys Qazaqstan,Kazakhstan,null,50.1020938,53.192972
Sarğa,1543,Mañğystau,Kazakhstan,null,45.464882,55.0677528
Kökjazyq,1542,Almaty,Kazakhstan,null,44.939823,78.619156
Qojabaqy,1540,Qyzylorda,Kazakhstan,null,45.632191,61.76635
Qūlan,1537,Turkıstan,Kazakhstan,null,42.5881591,70.3610797
Äbdıhalyq,1533,Turkıstan,Kazakhstan,null,40.7478067,68.2712145
Qaqpaq,1532,Almaty,Kazakhstan,null,42.79919,79.8996786
Jartas,1532,Qarağandy,Kazakhstan,null,49.6545162,72.6747318
Janqoja batyr,1531,Qyzylorda,Kazakhstan,null,45.7633389,61.8174809
Jölek,1526,Qyzylorda,Kazakhstan,null,44.290104,66.431419
Yntymaq,1523,Turkıstan,Kazakhstan,null,42.5419671,69.9305879
Qūlaaiğyr,1522,Qarağandy,Kazakhstan,null,49.426928,72.9235554
Abai,1520,Jambyl,Kazakhstan,null,43.687828,73.634956
Qaratoğai,1517,Aqtöbe,Kazakhstan,null,50.621826,56.820641
Aqqūm,1517,Turkıstan,Kazakhstan,null,42.375996,68.201653
Ūştağan,1516,Mañğystau,Kazakhstan,null,43.825347,52.7226095
Oişylyq,1516,Şyğys Qazaqstan,Kazakhstan,null,47.544495,83.002419
Tastöbe,1515,Jambyl,Kazakhstan,null,43.059029,71.23481
Berıktas,1515,Jambyl,Kazakhstan,null,43.27795,74.387856
Äiteke Bi,1515,Turkıstan,Kazakhstan,null,42.4462084,69.782544
Üşköpır,1513,Turkıstan,Kazakhstan,null,40.9021879,68.3519887
Qonystanu,1511,Atyrau,Kazakhstan,null,48.8388961,53.3417006
Aqai Nüsıpbekov,1510,Almaty,Kazakhstan,null,43.0490047,78.6105545
Qazaqstan,1509,Turkıstan,Kazakhstan,null,42.257923,70.024963
Aidarly,1505,Qyzylorda,Kazakhstan,null,44.468601,65.762764
Bergen İsahanov,1505,Turkıstan,Kazakhstan,null,42.5449802,69.1170586
Otan,1504,Turkıstan,Kazakhstan,null,40.9976339,68.2423281
Ülken Şağan,1503,Batys Qazaqstan,Kazakhstan,null,50.9272292,51.1479286
Ülken,1502,Almaty,Kazakhstan,null,45.2066104,73.9309622
Alğa,1499,Almaty,Kazakhstan,null,43.443977,77.17585
Bereke,1499,Pavlodar,Kazakhstan,null,51.9973271,76.0851717
Novobajenovo,1498,Şyğys Qazaqstan,Kazakhstan,null,50.3832122,81.0282617
Qosestek,1496,Aqtöbe,Kazakhstan,null,50.745422,57.889839
Otyrar,1496,Turkıstan,Kazakhstan,null,42.9082858,68.345325
Aqjazyq,1494,Almaty,Kazakhstan,null,44.1466378,79.7652511
Jarmūhambet,1493,Almaty,Kazakhstan,null,43.375233,76.803825
Mahambet Ötemısūly,1492,Turkıstan,Kazakhstan,null,41.8653423,69.4356536
Nūrtas,1491,Turkıstan,Kazakhstan,null,43.246349,67.960525
Eñbekşıaral,1490,Almaty,Kazakhstan,null,43.21722,76.251045
Zaria,1489,Pavlodar,Kazakhstan,null,52.0989133,77.102909
Mitşurino,1489,Pavlodar,Kazakhstan,null,52.4820615,76.8164062
Jaiylma,1489,Qyzylorda,Kazakhstan,null,44.042191,67.270821
Mäntai Järımbetov,1489,Turkıstan,Kazakhstan,null,42.502917,70.2964228
Nadek,1488,Almaty,Kazakhstan,null,44.263889,80.141388
Mūratbaev,1487,Qyzylorda,Kazakhstan,null,45.8255,62.071781
Qalpe,1486,Almaty,Kazakhstan,null,45.0902915,77.9066537
Rozovka,1483,Pavlodar,Kazakhstan,null,52.6117004,77.4316091
Rubejinskoe,1482,Batys Qazaqstan,Kazakhstan,null,51.421082,51.964249
Toğyzkent,1481,Jambyl,Kazakhstan,null,43.934811,70.38855
Şäken Niiazbekov,1478,Jambyl,Kazakhstan,null,42.9971584,71.3156173
Toqmağanbetov,1477,Qyzylorda,Kazakhstan,null,45.0607657,65.0517251
Köşım,1475,Batys Qazaqstan,Kazakhstan,null,50.87159,51.130608
Novonikolskoe,1474,Soltustık Qazaqstan,Kazakhstan,null,54.527195,68.686737
Zubovka,1474,Şyğys Qazaqstan,Kazakhstan,null,49.791912,84.249626
Barşatas,1474,Şyğys Qazaqstan,Kazakhstan,null,48.167538,78.661774
Baimūrat batyr,1473,Qyzylorda,Kazakhstan,null,44.857315,65.356964
Aqarys,1472,Turkıstan,Kazakhstan,null,42.5995351,69.5684337
Tasaryq,1471,Turkıstan,Kazakhstan,null,42.2403693,70.1331138
Eñbek,1470,Qyzylorda,Kazakhstan,null,44.8910854,64.5736286
Jañaözen,1470,Şyğys Qazaqstan,Kazakhstan,null,49.323025,81.476624
Aidarly,1469,Almaty,Kazakhstan,null,44.0331478,79.5201882
Kökbai,1469,Şyğys Qazaqstan,Kazakhstan,null,48.7572269,79.3355756
Aqtan batyr,1468,Qyzylorda,Kazakhstan,null,45.783539,61.975941
Prigorodnoe,1467,Qostanai,Kazakhstan,null,52.2126452,61.3044651
İsatai,1466,Atyrau,Kazakhstan,null,46.800076,50.0694755
Şaiyr,1466,Mañğystau,Kazakhstan,null,44.241669,51.817924
Diev,1466,Qostanai,Kazakhstan,null,52.000542,63.68668
Kölbai,1465,Almaty,Kazakhstan,null,45.814621,80.286766
Jetısu,1465,Almaty,Kazakhstan,null,44.873535,78.61792
Avat,1464,Almaty,Kazakhstan,null,44.183819,80.169098
Keñestöbe,1464,Turkıstan,Kazakhstan,null,43.034508,69.60778
Jolqūdyq,1462,Pavlodar,Kazakhstan,null,52.3384333,76.7233657
Qyzyljar,1461,Almaty,Kazakhstan,null,44.4328108,78.1375274
Örnek,1461,Jambyl,Kazakhstan,null,42.9708405,72.1539718
Jeltorañğy,1460,Almaty,Kazakhstan,null,45.069695,75.261215
Qyzylşarua,1460,Jambyl,Kazakhstan,null,43.011581,72.832397
Jaskeşu,1459,Turkıstan,Kazakhstan,null,41.5336175,69.2803549
Pereleski,1457,Qostanai,Kazakhstan,null,52.5457579,62.076341
Aqkiıztoğai,1454,Atyrau,Kazakhstan,null,47.097031,54.382004
Qaraköl,1454,Atyrau,Kazakhstan,null,48.77948,52.873951
Aşutasty,1451,Qostanai,Kazakhstan,null,50.117851,66.570892
Qozmoldaq,1448,Turkıstan,Kazakhstan,null,43.951824,68.572319
Kenesary a.,1447,Aqmola,Kazakhstan,null,53.0947246,69.860803
Dermene,1447,Turkıstan,Kazakhstan,null,42.5256178,68.7880826
Jauğaşty,1446,Almaty,Kazakhstan,null,43.4065773,76.6976415
Mädeniet,1445,Turkıstan,Kazakhstan,null,40.7997213,68.4861904
Qaraağaş,1443,Almaty,Kazakhstan,null,44.3949421,77.6621371
Bolşoi Tşurakov,1443,Qostanai,Kazakhstan,null,53.0513067,64.3350472
Dihan,1441,Jambyl,Kazakhstan,null,43.108952,71.58297
Sypatai,1439,Jambyl,Kazakhstan,null,42.849384,73.322403
Qyzyljar,1439,Qarağandy,Kazakhstan,null,48.296661,69.650841
Bögetsai,1430,Aqtöbe,Kazakhstan,null,50.1216,59.0935
Qoñyrtöbe,1429,Turkıstan,Kazakhstan,null,41.414921,68.798111
Jañaqonys,1428,Qyzylorda,Kazakhstan,null,45.980309,61.057747
Üşbūlaq,1426,Turkıstan,Kazakhstan,null,41.9068765,69.5631122
Jeleznodorojnoe,1424,Qostanai,Kazakhstan,null,52.096367,65.669395
Derbes,1424,Turkıstan,Kazakhstan,null,42.3815943,69.2733907
Novomarkovka,1423,Aqmola,Kazakhstan,null,51.717091,72.288986
Tşernoretsk,1422,Pavlodar,Kazakhstan,null,52.7477678,76.651139
Vinnoe,1422,Şyğys Qazaqstan,Kazakhstan,null,50.060223,82.824448
Jañatalap,1421,Turkıstan,Kazakhstan,null,41.9938189,69.7043036
Jeñıs,1421,Turkıstan,Kazakhstan,null,40.6042127,68.5543011
Alğabas,1419,Turkıstan,Kazakhstan,null,41.489507,69.138511
Aqjar,1418,Almaty,Kazakhstan,null,45.799797,80.645142
Merei,1418,Almaty,Kazakhstan,null,43.337227,76.704124
Darhan,1417,Turkıstan,Kazakhstan,null,40.9049571,68.2101192
Qainar,1415,Şyğys Qazaqstan,Kazakhstan,null,49.2005611,77.3822229
Qarabūlaq,1414,Şyğys Qazaqstan,Kazakhstan,null,46.142754,82.167526
Granitogorsk,1413,Jambyl,Kazakhstan,null,42.74279,73.468788
Qyzylkesek,1413,Şyğys Qazaqstan,Kazakhstan,null,47.8811338,82.0116687
Matai Baisov,1412,Almaty,Kazakhstan,null,44.893482,78.413315
Sūranşy batyr,1411,Almaty,Kazakhstan,null,43.105762,76.013634
Uvarovo,1411,Şyğys Qazaqstan,Kazakhstan,null,50.0764769,82.3810672
Mätıbūlaq,1408,Almaty,Kazakhstan,null,43.567207,75.279854
Rodnikovka,1406,Aqtöbe,Kazakhstan,null,50.652813,57.173714
Alekseevka,1405,Aqmola,Kazakhstan,null,53.5121,69.513786
Aqqūm,1405,Turkıstan,Kazakhstan,null,42.1988484,69.9574229
Jambyl,1404,Almaty,Kazakhstan,null,42.722965,80.065079
Şämşı Qaldaiaqov,1404,Aqtöbe,Kazakhstan,null,50.5770528,57.5458922
Kökaral,1404,Turkıstan,Kazakhstan,null,40.8716389,68.5446453
Qoişybek,1399,Almaty,Kazakhstan,null,43.4732602,77.1966205
Ekpındı,1398,Almaty,Kazakhstan,null,45.739594,80.620262
Jidelı,1397,Turkıstan,Kazakhstan,null,41.282307,68.652336
Novotşernoiarka,1396,Pavlodar,Kazakhstan,null,52.5388768,76.8062246
Alğabas,1395,Almaty,Kazakhstan,null,44.674267,78.1091
Atamūra,1394,Turkıstan,Kazakhstan,null,40.753955,68.402771
Eskeldı Bi,1393,Almaty,Kazakhstan,null,45.190487,78.013359
Sūñqar,1392,Almaty,Kazakhstan,null,43.478062,80.165833
Altynsarin,1392,Qostanai,Kazakhstan,null,51.7374,62.346085
Hanqorğan,1390,Turkıstan,Kazakhstan,null,42.580341,69.6933842
Bekbota,1389,Turkıstan,Kazakhstan,null,41.4374735,68.2540177
Zyliha Tamşybai,1386,Almaty,Kazakhstan,null,44.9476463,78.0889298
Talqairan,1386,Atyrau,Kazakhstan,null,47.2379863,51.9473612
Novenkoe,1383,Batys Qazaqstan,Kazakhstan,null,51.241726,50.917145
Jürekadyr,1382,Şyğys Qazaqstan,Kazakhstan,null,48.5491792,79.6273819
Zelenoe,1381,Batys Qazaqstan,Kazakhstan,null,51.151306,50.68856
Gosplemstantsiia,1379,Pavlodar,Kazakhstan,null,52.4997193,76.8117714
Şanaq,1379,Turkıstan,Kazakhstan,null,42.103649,69.21933
Qarauyltöbe,1376,Batys Qazaqstan,Kazakhstan,null,49.6268804,51.6038212
Kökentau,1376,Şyğys Qazaqstan,Kazakhstan,null,50.0802945,79.580019
Ordjinikidze,1375,Turkıstan,Kazakhstan,null,41.339627,68.7055137
Beregovoi,1374,Qostanai,Kazakhstan,null,52.879856,63.056541
Dalaqainar,1373,Jambyl,Kazakhstan,null,43.834446,73.957809
Esıl,1372,Qarağandy,Kazakhstan,null,50.683968,72.721512
Balqūdyq,1371,Atyrau,Kazakhstan,null,47.837544,47.5759943
Qaroi,1370,Turkıstan,Kazakhstan,null,40.7318119,68.203727
Äl Farabi,1369,Turkıstan,Kazakhstan,null,40.7661116,68.1890917
Alğabas,1369,Turkıstan,Kazakhstan,null,41.231045,68.813255
İasnaia Poliana,1368,Soltustık Qazaqstan,Kazakhstan,null,53.948624,70.280006
Serebriakovo,1367,Batys Qazaqstan,Kazakhstan,null,51.045403,51.240139
Nūrauyl,1366,Turkıstan,Kazakhstan,null,40.8721618,68.3274516
Sovetskoe,1365,Soltustık Qazaqstan,Kazakhstan,null,54.4322207,70.3431847
Aqniet,1365,Turkıstan,Kazakhstan,null,40.8563119,68.2936764
Qydyr Mämbetūly,1362,Turkıstan,Kazakhstan,null,41.9771836,69.5007186
Tasty,1362,Turkıstan,Kazakhstan,null,44.800636,69.168678
Ilbışın,1356,Batys Qazaqstan,Kazakhstan,null,49.792412,51.391098
Jem,1355,Aqtöbe,Kazakhstan,null,48.774899,58.0739445
Qosağaş,1354,Turkıstan,Kazakhstan,null,41.872459,69.644135
Qainar,1353,Turkıstan,Kazakhstan,null,42.1592998,70.0452661
Bırlesu-Eñbek,1351,Jambyl,Kazakhstan,null,43.000942,71.113602
Qaraqai,1351,Turkıstan,Kazakhstan,null,40.8239367,68.2393319
Şebır,1350,Mañğystau,Kazakhstan,null,44.8144,52.092407
Üşqūdyq,1346,Aqtöbe,Kazakhstan,null,50.1008081,56.8220982
Qaraböget,1345,Almaty,Kazakhstan,null,45.763096,80.258095
Qyzyljar,1343,Pavlodar,Kazakhstan,null,53.3862336,75.4180097
Yntymaq,1342,Turkıstan,Kazakhstan,null,42.464218,69.750008
Kökparsai,1340,Turkıstan,Kazakhstan,null,40.7552922,68.4732774
Taldysai,1339,Aqtöbe,Kazakhstan,null,50.4618996,60.3348085
Aqbastau,1339,Turkıstan,Kazakhstan,null,42.1201109,69.7530904
Äden Ata,1334,Turkıstan,Kazakhstan,null,40.9072206,68.3595086
Şekoman,1333,Şyğys Qazaqstan,Kazakhstan,null,50.4569434,79.8471692
Bäidıbek,1333,Turkıstan,Kazakhstan,null,42.9920923,69.9117136
Bosköl,1332,Qostanai,Kazakhstan,null,53.71558,61.298145
Şalğyşy,1332,Qostanai,Kazakhstan,null,52.138184,65.650726
Stepnoi,1331,Aqmola,Kazakhstan,null,51.6772032,70.9904179
Noğaity,1330,Aqtöbe,Kazakhstan,null,48.4337932,55.2402029
Şytty,1328,Turkıstan,Kazakhstan,null,42.752438,68.360863
Zabelov,1326,Qostanai,Kazakhstan,null,52.289291,61.337204
Költoğan,1324,Jambyl,Kazakhstan,null,42.740688,70.330338
Zelenyi Gai,1323,Soltustık Qazaqstan,Kazakhstan,null,53.9415782,70.4052003
Atameken,1323,Turkıstan,Kazakhstan,null,41.5612395,69.4048296
Taldybūlaq,1321,Almaty,Kazakhstan,null,43.446465,77.667213
Bırlık,1319,Almaty,Kazakhstan,null,43.498085,77.520309
Abai,1319,Turkıstan,Kazakhstan,null,43.621716,68.147644
Aqsu,1316,Jambyl,Kazakhstan,null,43.256989,74.025719
Eralievo,1315,Qarağandy,Kazakhstan,null,48.647499,70.372314
Sarybūlaq,1314,Almaty,Kazakhstan,null,43.68082,78.225357
Aqşat,1313,Batys Qazaqstan,Kazakhstan,null,50.444691,54.124397
Nikolaevka,1312,Soltustık Qazaqstan,Kazakhstan,null,54.205807,67.804298
Qarabau,1311,Atyrau,Kazakhstan,null,48.450558,52.925968
Köktal,1308,Jambyl,Kazakhstan,null,43.27792,70.303062
Mūratbaev,1308,Turkıstan,Kazakhstan,null,40.9555934,68.3025935
Költoğan,1307,Turkıstan,Kazakhstan,null,42.5265602,69.1023386
İgılık,1306,Jambyl,Kazakhstan,null,43.782948,69.928291
Karl Marks,1306,Turkıstan,Kazakhstan,null,40.8055057,68.3618603
Jañatalap,1305,Almaty,Kazakhstan,null,45.220699,77.929848
Novoilinov,1304,Qostanai,Kazakhstan,null,52.635323,62.697922
Bektau,1301,Aqmola,Kazakhstan,null,51.770916,71.224495
Äsılaryq,1301,Turkıstan,Kazakhstan,null,42.4661469,69.6123772
Tamdy,1299,Jambyl,Kazakhstan,null,43.148376,70.596603
Kömekbaev,1299,Qyzylorda,Kazakhstan,null,44.8407968,63.1987039
Syrabat,1299,Turkıstan,Kazakhstan,null,40.9491688,68.422295
Qūmaral,1297,Almaty,Kazakhstan,null,43.223446,76.515678
Bölımşe 3,1297,Almaty,Kazakhstan,null,44.9611642,78.304123
Presnogorkov,1297,Qostanai,Kazakhstan,null,54.498322,65.761513
Binazar,1296,Jambyl,Kazakhstan,null,44.065121,73.575287
Eñbek,1296,Pavlodar,Kazakhstan,null,51.959804,77.0154905
Ülkenböken,1296,Şyğys Qazaqstan,Kazakhstan,null,48.7811984,82.6962859
Köktas,1294,Qarağandy,Kazakhstan,null,49.5948381,75.0574047
Bostandyq,1290,Jambyl,Kazakhstan,null,43.618309,71.219513
Aqniet,1289,Turkıstan,Kazakhstan,null,41.4931098,69.2894399
Abai,1289,Turkıstan,Kazakhstan,null,42.6406635,70.117023
Saryterek,1286,Şyğys Qazaqstan,Kazakhstan,null,47.4988035,85.1754476
Jemıstı,1286,Turkıstan,Kazakhstan,null,40.8476083,68.0650839
Ekpındı,1286,Turkıstan,Kazakhstan,null,42.1157814,69.9504232
Altyntöbe,1285,Turkıstan,Kazakhstan,null,41.8650547,69.6797132
Jağabūlaq,1284,Aqtöbe,Kazakhstan,null,48.5483047,57.5597362
Joğarğy Egınsu,1284,Şyğys Qazaqstan,Kazakhstan,null,47.023838,81.39389
Myrzabai Ahun,1283,Qyzylorda,Kazakhstan,null,44.852329,64.452873
Jankent,1282,Qyzylorda,Kazakhstan,null,45.629852,61.930191
Abai,1282,Turkıstan,Kazakhstan,null,42.1240738,69.6829318
Jidelı,1280,Almaty,Kazakhstan,null,45.432503,74.321053
Priuralnoe,1280,Batys Qazaqstan,Kazakhstan,null,51.478325,53.105526
Taldybūlaq,1279,Almaty,Kazakhstan,null,44.5120873,78.8856225
Maikomgen,1279,Atyrau,Kazakhstan,null,46.5228031,54.2732763
Progress,1279,Şyğys Qazaqstan,Kazakhstan,null,50.1360958,82.3910598
Amangeldı,1277,Turkıstan,Kazakhstan,null,42.5676683,69.213953
Maşteksai,1276,Batys Qazaqstan,Kazakhstan,null,49.046745,49.951328
Jıgergen,1274,Turkıstan,Kazakhstan,null,41.914817,69.725807
Almaly,1272,Batys Qazaqstan,Kazakhstan,null,49.184261,51.896614
Qanöner,1272,Şyğys Qazaqstan,Kazakhstan,null,50.723671,79.688866
Mädeniet,1272,Turkıstan,Kazakhstan,null,41.428756,68.990104
Aral,1270,Jambyl,Kazakhstan,null,43.148045,74.552818
Üşbiık,1265,Şyğys Qazaqstan,Kazakhstan,null,48.465546,80.575317
Arasan,1264,Almaty,Kazakhstan,null,45.278057,79.355003
Mamai batyr,1264,Şyğys Qazaqstan,Kazakhstan,null,49.7652364,82.6094229
Jañaūiym,1263,Turkıstan,Kazakhstan,null,42.15377,69.931671
Jolaman,1259,Almaty,Kazakhstan,null,44.2617534,77.5481214
Bereke,1259,Turkıstan,Kazakhstan,null,42.590363,69.361702
Pırımov,1258,Qyzylorda,Kazakhstan,null,45.794586,62.303623
Qaratūma,1255,Şyğys Qazaqstan,Kazakhstan,null,47.1010112,82.0102997
Qoibağar,1254,Qostanai,Kazakhstan,null,52.293663,65.022247
Baqqonys,1254,Turkıstan,Kazakhstan,null,40.7860758,68.1822898
Kökbastau,1253,Jambyl,Kazakhstan,null,43.06068,71.64373
Tarbağatai,1253,Şyğys Qazaqstan,Kazakhstan,null,47.8056393,81.2731824
Aimantöbe,1250,Jambyl,Kazakhstan,null,43.084122,71.530243
Eñbekşı,1249,Almaty,Kazakhstan,null,46.165352,80.712502
Qyzyloba,1249,Batys Qazaqstan,Kazakhstan,null,49.646004,50.64061
Saryömır,1249,Batys Qazaqstan,Kazakhstan,null,50.468926,51.7163694
Gerasimovka,1249,Şyğys Qazaqstan,Kazakhstan,null,49.980213,82.420883
Jylysai,1248,Almaty,Kazakhstan,null,43.133499,78.962639
Gluhovka,1248,Şyğys Qazaqstan,Kazakhstan,null,50.495895,79.870018
Baqyrly,1246,Turkıstan,Kazakhstan,null,44.361992,67.768257
Ortaqşyl,1245,Qyzylorda,Kazakhstan,null,44.209488,66.497322
Bäiterek,1243,Turkıstan,Kazakhstan,null,40.90596,68.289169
Zineden,1242,Atyrau,Kazakhstan,null,46.741638,50.140537
Bürkıttı,1241,Qarağandy,Kazakhstan,null,49.4777083,75.8729651
Esebolat,1240,Almaty,Kazakhstan,null,45.411961,79.588402
Jalğansai,1240,Atyrau,Kazakhstan,null,47.6063222,51.6110124
Budarino,1240,Batys Qazaqstan,Kazakhstan,null,50.515274,51.068256
Timofeev,1240,Qostanai,Kazakhstan,null,52.297325,63.530796
Eñbek,1239,Almaty,Kazakhstan,null,43.483536,77.464844
Mädeni,1236,Turkıstan,Kazakhstan,null,42.332516,70.0709549
Būlanbaibauy,1235,Qyzylorda,Kazakhstan,null,43.90255,66.614136
Gorniak,1234,Qostanai,Kazakhstan,null,53.0301745,63.1135202
Makinka,1233,Aqmola,Kazakhstan,null,52.572346,70.5954957
Şoqpar stansasy,1233,Jambyl,Kazakhstan,null,43.819538,74.375275
Örgebas,1233,Turkıstan,Kazakhstan,null,40.6360209,68.4407843
Aralqūm,1231,Qyzylorda,Kazakhstan,null,46.499805,61.89077
Asanov,1231,Soltustık Qazaqstan,Kazakhstan,null,54.853539,69.452156
Arqabai,1230,Almaty,Kazakhstan,null,43.4169613,77.0949601
Aştşybūlaq,1228,Jambyl,Kazakhstan,null,43.081047,71.203247
Amangeldı,1226,Batys Qazaqstan,Kazakhstan,null,50.955025,49.934982
Ülkensūlutory,1226,Jambyl,Kazakhstan,null,43.258648,75.167633
Qopa,1225,Aqtöbe,Kazakhstan,null,49.217659,56.638691
Jambyl,1222,Jambyl,Kazakhstan,null,44.292385,73.0387863
Sadovyi,1222,Qostanai,Kazakhstan,null,53.105026,63.599888
Ahmet,1221,Qarağandy,Kazakhstan,null,50.6341901,71.4580799
Poludino,1221,Soltustık Qazaqstan,Kazakhstan,null,54.862617,69.919205
Petropavlovka,1219,Şyğys Qazaqstan,Kazakhstan,null,50.746124,80.286369
Tağaina,1218,Turkıstan,Kazakhstan,null,42.1105127,69.867382
Eskıqorğan,1217,Turkıstan,Kazakhstan,null,40.973611,68.725833
Saryköl,1216,Aqtöbe,Kazakhstan,null,48.6232845,57.1919082
Qazaq Ssr-Ñ 40 Jyldyğy,1216,Turkıstan,Kazakhstan,null,40.8884386,68.4651661
Aqtübek,1215,Almaty,Kazakhstan,null,46.159527,81.186966
Novo-İavlenka,1215,Şyğys Qazaqstan,Kazakhstan,null,49.9693805,82.4904797
Tesıktöbe,1215,Turkıstan,Kazakhstan,null,41.905503,69.777646
Jaña Tılek,1213,Şyğys Qazaqstan,Kazakhstan,null,47.124821,81.267105
Vostok,1210,Qostanai,Kazakhstan,null,52.661514,65.518173
Bogoliubovo,1210,Soltustık Qazaqstan,Kazakhstan,null,54.6174536,68.7288167
Talapty,1210,Turkıstan,Kazakhstan,null,42.861141,68.292175
Besmoinaq,1207,Almaty,Kazakhstan,null,43.118362,75.680115
Ūzynbūlaq,1207,Almaty,Kazakhstan,null,43.1560588,79.0151801
Nejinka,1206,Soltustık Qazaqstan,Kazakhstan,null,53.059357,66.739822
Myñbai,1205,Turkıstan,Kazakhstan,null,42.58876,69.838241
Nautşnyi,1204,Aqmola,Kazakhstan,null,51.677204,71.0172893
Petrovka,1204,Soltustık Qazaqstan,Kazakhstan,null,53.6162693,70.4615564
Şyryn,1202,Almaty,Kazakhstan,null,43.652779,79.51194
Myrzatöbe,1202,Turkıstan,Kazakhstan,null,40.6866771,68.3967403
Aqqūm,1201,Jambyl,Kazakhstan,null,43.646843,71.290146
Sandyqtau,1200,Aqmola,Kazakhstan,null,52.60746,68.840828
Alğabas,1200,Batys Qazaqstan,Kazakhstan,null,50.6634907,52.1109835
Bostandyq,1200,Turkıstan,Kazakhstan,null,43.4466268,68.4326176
Furmanov,1199,Qostanai,Kazakhstan,null,50.493557,66.786888
Keldımūrat,1199,Şyğys Qazaqstan,Kazakhstan,null,47.031462,82.1473912
Äzerbaijan,1198,Turkıstan,Kazakhstan,null,41.383576,68.9419052
Qainar,1198,Turkıstan,Kazakhstan,null,44.099808,68.547607
Bazarşolan,1197,Batys Qazaqstan,Kazakhstan,null,49.0657844,51.9478333
Myrzaşöl,1197,Turkıstan,Kazakhstan,null,40.7390815,68.2966515
İamyşevo,1195,Pavlodar,Kazakhstan,null,51.8903983,77.3728681
Frunze,1194,Qostanai,Kazakhstan,null,52.849613,61.522438
Törtkül,1194,Turkıstan,Kazakhstan,null,40.8132571,68.4455967
Örkeniet,1193,Turkıstan,Kazakhstan,null,40.8067932,68.536148
Mihailovka,1192,Pavlodar,Kazakhstan,null,53.827221,76.546944
Bolşoi İzium,1191,Soltustık Qazaqstan,Kazakhstan,null,53.719046,69.63546
Maqtaly,1191,Turkıstan,Kazakhstan,null,42.587043,69.935058
Qaraqamys,1190,Batys Qazaqstan,Kazakhstan,null,49.304769,53.1615734
Küşata,1189,Turkıstan,Kazakhstan,null,43.442474,68.449371
Jūryn,1188,Aqtöbe,Kazakhstan,null,49.254284,57.585487
Önımker,1188,Turkıstan,Kazakhstan,null,40.7051277,68.4582617
Myñşūñqyr,1188,Turkıstan,Kazakhstan,null,42.813751,68.305145
Jarlyözek,1186,Almaty,Kazakhstan,null,44.904003,78.056526
Juantöbe,1186,Turkıstan,Kazakhstan,null,41.1692918,68.764305
Stantsionnyi,1184,Qostanai,Kazakhstan,null,53.884407,61.872292
Bırlık,1183,Batys Qazaqstan,Kazakhstan,null,49.3809763,50.6335429
Aqbūlaq,1183,Qarağandy,Kazakhstan,null,50.732571,73.5317087
Abai,1180,Jambyl,Kazakhstan,null,43.078316,71.339867
Jalañtös batyr,1180,Qyzylorda,Kazakhstan,null,45.812992,62.258221
Aisary,1177,Qostanai,Kazakhstan,null,52.918083,63.794064
Altynsarin,1177,Qostanai,Kazakhstan,null,53.141827,63.619328
Ötegen,1176,Jambyl,Kazakhstan,null,42.958996,74.985054
Köktöbe,1176,Turkıstan,Kazakhstan,null,40.9876085,68.302431
Qima,1174,Aqmola,Kazakhstan,null,51.58699,67.560112
Qaratal,1174,Aqtöbe,Kazakhstan,null,48.941218,54.7606828
Öndırıs,1171,Jambyl,Kazakhstan,null,43.741585,69.899536
Ortaqşyl,1169,Atyrau,Kazakhstan,null,47.637131,51.649197
Tsentralnoe,1169,Qarağandy,Kazakhstan,null,50.178257,72.739838
Bırşoğyr,1168,Aqtöbe,Kazakhstan,null,48.4599409,58.5583369
Elenovka,1166,Aqmola,Kazakhstan,null,53.257019,68.881363
Topar,1164,Almaty,Kazakhstan,null,45.036915,75.020836
Jambyl,1164,Turkıstan,Kazakhstan,null,42.464921,69.1496021
Aqköl,1163,Aqmola,Kazakhstan,null,53.296177,69.596649
Talapty,1162,Almaty,Kazakhstan,null,44.8009359,78.404774
Galitskoe,1162,Pavlodar,Kazakhstan,null,53.0035123,78.1346185
Talapty,1161,Turkıstan,Kazakhstan,null,40.8509156,68.1221476
Qandöz,1160,Qyzylorda,Kazakhstan,null,43.28614,67.667336
Qarsaqpai,1159,Qarağandy,Kazakhstan,null,47.8353392,66.7253573
Arqa,1159,Qostanai,Kazakhstan,null,52.049171,62.401093
Preobrajenka,1159,Şyğys Qazaqstan,Kazakhstan,null,48.839138,82.743622
Maşat,1159,Turkıstan,Kazakhstan,null,42.5620579,69.8561382
Köbetei,1157,Qarağandy,Kazakhstan,null,50.4742635,71.4469756
Degeres,1156,Almaty,Kazakhstan,null,43.23753,75.80542
Şakırov,1156,Jambyl,Kazakhstan,null,43.6756375,71.1476615
Beibıtşılık,1155,Turkıstan,Kazakhstan,null,41.0015234,68.2442373
Bereke,1153,Almaty,Kazakhstan,null,45.03735,76.124702
Nikolskoe,1153,Aqmola,Kazakhstan,null,52.265224,70.591599
Qaraoba,1153,Batys Qazaqstan,Kazakhstan,null,49.973267,47.95248
Krasnoselskii,1153,Qostanai,Kazakhstan,null,52.85149,62.550667
Qolğūta,1152,Jambyl,Kazakhstan,null,43.167358,74.607239
Qamysty,1149,Batys Qazaqstan,Kazakhstan,null,49.768093,46.950924
Dmitrievka,1149,Şyğys Qazaqstan,Kazakhstan,null,50.759914,80.828133
Qorğas,1148,Almaty,Kazakhstan,null,44.22364,80.384232
Orlovka,1147,Pavlodar,Kazakhstan,null,52.566667,78.033333
Besaryq,1146,Qyzylorda,Kazakhstan,null,43.5856799,67.6422
Baikenje,1145,Qyzylorda,Kazakhstan,null,43.887901,66.920952
Tañ,1144,Qyzylorda,Kazakhstan,null,45.070404,64.419594
Şūbarköl,1142,Qarağandy,Kazakhstan,null,48.975639,68.791245
Zenkovka,1142,Şyğys Qazaqstan,Kazakhstan,null,50.784859,80.617218
Yntymaq,1141,Almaty,Kazakhstan,null,44.188274,80.220238
Viktorovka,1141,Aqmola,Kazakhstan,null,52.755051,69.114822
Qyzylşekara,1139,Almaty,Kazakhstan,null,42.8777917,80.3708408
Qaiyñdy,1138,Jambyl,Kazakhstan,null,42.934486,71.946815
Tarlauly,1137,Şyğys Qazaqstan,Kazakhstan,null,47.31469,79.739441
Sūlubūlaq,1137,Turkıstan,Kazakhstan,null,40.9502927,68.4144968
İanvartsevo,1136,Batys Qazaqstan,Kazakhstan,null,51.443405,52.247547
Şortanbai,1135,Atyrau,Kazakhstan,null,46.609383,48.658089
Tarğap,1134,Almaty,Kazakhstan,null,43.332508,75.842529
Efremovka,1134,Pavlodar,Kazakhstan,null,52.535145,77.343155
28 Gvardiiaşylar,1134,Turkıstan,Kazakhstan,null,41.153942,68.774307
Taldyköl,1133,Atyrau,Kazakhstan,null,47.3420652,51.8774629
Begen,1133,Şyğys Qazaqstan,Kazakhstan,null,51.1841762,79.0452681
Köldeneñ,1133,Şyğys Qazaqstan,Kazakhstan,null,47.1244862,81.9442335
Mūqyr,1129,Şyğys Qazaqstan,Kazakhstan,null,50.441531,80.0672391
Aqjaiyq,1128,Atyrau,Kazakhstan,null,47.880898,51.659012
Qaljan Ahun,1128,Qyzylorda,Kazakhstan,null,45.0673531,64.8944487
Sekisovka,1128,Şyğys Qazaqstan,Kazakhstan,null,50.3236983,82.5872488
Arna,1125,Almaty,Kazakhstan,null,43.777916,77.098343
Nauryz,1124,Turkıstan,Kazakhstan,null,40.693016,68.544647
Käukei,1123,Qyzylorda,Kazakhstan,null,45.2641334,61.7581763
Petrovka,1122,Soltustık Qazaqstan,Kazakhstan,null,54.302021,68.221336
Volodarskoe,1121,Batys Qazaqstan,Kazakhstan,null,51.311211,51.666962
Eñbekşı,1120,Jambyl,Kazakhstan,null,42.9146234,72.7823367
Qyzylqaiyñ,1118,Almaty,Kazakhstan,null,45.847275,80.226814
Tūrar Rysqūlov,1118,Jambyl,Kazakhstan,null,42.9516469,73.2396817
Maibūlaq,1118,Turkıstan,Kazakhstan,null,41.950866,69.77185
Baqaly,1117,Almaty,Kazakhstan,null,45.69865,80.111832
Qarabūlaq,1117,Aqmola,Kazakhstan,null,52.305344,71.814995
Aqşymyrau,1117,Mañğystau,Kazakhstan,null,44.823097,52.836056
Eñbekşı,1114,Turkıstan,Kazakhstan,null,41.3526562,68.9642224
Şağalaly,1113,Soltustık Qazaqstan,Kazakhstan,null,54.178135,69.523079
Basyqara,1112,Qyzylorda,Kazakhstan,null,45.764912,62.328876
Mūsabek,1111,Almaty,Kazakhstan,null,44.8832398,77.9612307
Ürpek,1111,Qostanai,Kazakhstan,null,50.102375,65.310303
Şuaq,1110,Şyğys Qazaqstan,Kazakhstan,null,49.206291,81.188087
Şağatai,1109,Batys Qazaqstan,Kazakhstan,null,50.402031,51.239719
Tşehov,1109,Turkıstan,Kazakhstan,null,40.9466487,68.1613487
Sarjansai,1108,Aqtöbe,Kazakhstan,null,50.6423274,56.6976182
Sulyköl,1108,Batys Qazaqstan,Kazakhstan,null,49.5835582,53.1017158
Talas,1107,Almaty,Kazakhstan,null,43.1320419,79.8204633
Qoralas,1107,Turkıstan,Kazakhstan,null,41.1143205,68.5512932
Bazarbai,1106,Jambyl,Kazakhstan,null,43.036404,71.615166
Aqtöbe,1106,Jambyl,Kazakhstan,null,43.845356,73.541733
Konstantinovka,1105,Pavlodar,Kazakhstan,null,52.7882912,77.224099
Toğyzqūdyq,1104,Qarağandy,Kazakhstan,null,49.881065,73.578453
Privolnoe,1102,Şyğys Qazaqstan,Kazakhstan,null,50.101284,81.552292
Stepanov,1101,Qostanai,Kazakhstan,null,53.611664,64.174553
Dosbol Bi,1101,Qyzylorda,Kazakhstan,null,44.239876,66.653412
Köközek,1101,Şyğys Qazaqstan,Kazakhstan,null,47.1452133,81.8906715
Almaly,1101,Turkıstan,Kazakhstan,null,40.9693353,68.096416
Maleevsk,1100,Şyğys Qazaqstan,Kazakhstan,null,49.818184,84.316971
Jaña Qima,1099,Aqmola,Kazakhstan,null,51.596725,67.57888
Kudriaşev,1099,Atyrau,Kazakhstan,null,46.5188028,48.7967641
Alğabas,1099,Turkıstan,Kazakhstan,null,42.0898312,69.8112488
Zlatopole a.,1097,Aqmola,Kazakhstan,null,52.863796,69.949409
Qaraketken,1097,Qyzylorda,Kazakhstan,null,45.1913039,64.5142304
Baisyn,1096,Qyzylorda,Kazakhstan,null,44.143635,66.700783
Zevakino,1095,Şyğys Qazaqstan,Kazakhstan,null,50.2230461,81.8598752
Şalköde,1094,Almaty,Kazakhstan,null,43.152011,79.8869933
Beregovoe,1094,Pavlodar,Kazakhstan,null,53.1329784,75.8795106
Vostotşnyi,1094,Qostanai,Kazakhstan,null,50.559525,66.747986
Barvinov,1094,Qostanai,Kazakhstan,null,53.434086,65.706863
Sanaly,1094,Turkıstan,Kazakhstan,null,42.6812366,68.9832401
Taibai,1092,Aqmola,Kazakhstan,null,51.560768,72.964043
Özkent,1091,Qyzylorda,Kazakhstan,null,43.745514,67.241432
Aqyn Sara,1090,Almaty,Kazakhstan,null,45.231895,78.676949
Möñke Bi,1090,Aqtöbe,Kazakhstan,null,48.1620722,59.0600571
Eñbekşı,1090,Turkıstan,Kazakhstan,null,42.039017,69.420517
Miialy,1089,Almaty,Kazakhstan,null,44.495289,76.70356
Kamen,1089,Aqmola,Kazakhstan,null,52.369377,69.047264
Rodina,1087,Aqmola,Kazakhstan,null,51.3018,70.547974
Şūğyla,1087,Turkıstan,Kazakhstan,null,40.627399,68.620995
Qoğaly,1086,Turkıstan,Kazakhstan,null,40.8430672,67.9956722
Oljabai batyr,1085,Aqmola,Kazakhstan,null,51.298065,72.797714
Zerdelı,1085,Turkıstan,Kazakhstan,null,40.9745033,68.3764866
Könesaryq,1085,Turkıstan,Kazakhstan,null,42.236808,70.190834
Leninskoe,1083,Soltustık Qazaqstan,Kazakhstan,null,54.473019,69.182556
Torğai,1081,Aqmola,Kazakhstan,null,51.761063,72.743752
Antonov,1081,Qostanai,Kazakhstan,null,52.468716,61.757599
Qamysty,1081,Şyğys Qazaqstan,Kazakhstan,null,50.5696546,81.8019547
Jalğyzağaş,1080,Almaty,Kazakhstan,null,44.763134,78.557465
Pervomaika,1080,Aqmola,Kazakhstan,null,51.2906791,70.1308462
Qūmköl,1080,Şyğys Qazaqstan,Kazakhstan,null,47.569881,82.9364993
Baiandai,1079,Almaty,Kazakhstan,null,43.4902088,77.4134053
Penkovo,1079,Soltustık Qazaqstan,Kazakhstan,null,54.965187,69.244598
Aqsuat,1078,Batys Qazaqstan,Kazakhstan,null,51.226955,51.631908
Berezovka,1078,Şyğys Qazaqstan,Kazakhstan,null,50.234627,82.129448
Bögen,1077,Qyzylorda,Kazakhstan,null,46.140862,61.219986
Şynqoja,1077,Şyğys Qazaqstan,Kazakhstan,null,47.7429336,80.6455381
Jañabūlaq,1075,Batys Qazaqstan,Kazakhstan,null,50.313831,51.06485
Tşervonnoe,1075,Soltustık Qazaqstan,Kazakhstan,null,53.277252,66.727776
Qarğaly,1074,Almaty,Kazakhstan,null,45.616669,80.48333
Abai,1074,Qyzylorda,Kazakhstan,null,45.7280619,62.2170505
Terektı,1073,Almaty,Kazakhstan,null,44.8956409,78.2069921
Keñes,1073,Qyzylorda,Kazakhstan,null,43.677101,67.786888
Bystruha,1069,Şyğys Qazaqstan,Kazakhstan,null,50.378361,82.718491
