Name,Latitude,Longitude,Population
Panamá,8.9828074,-79.5198048,430299
San Miguelito,9.0486646,-79.5081349,315019
Las Cumbres,9.091709,-79.5273864,127440
La Chorrera,8.8828588,-79.774005,118521
Tocumen,9.0973088,-79.3781918,113174
Pacora,9.0836433,-79.2905574,103960
Arraiján,8.9398034,-79.6427153,96676
David,8.4197394,-82.4304483,81957
Vista Alegre,8.9301451,-79.6990835,55114
Santiago de Veraguas,8.0883754,-80.9759083,51236
Chitré,7.9521924,-80.4383614,48479
Cristóbal,9.3504845,-79.9016211,47234
Colón,9.3592978,-79.9001555,34655
Juan Demóstenes Arosemena,8.9251772,-79.7251179,33704
Cativa,9.3636593,-79.8310438,32750
Aguadulce,8.2310002,-80.5547305,29908
Changuinola,9.4487879,-82.4853092,29032
Ancón,8.9698189,-79.5625255,24931
Penonome,8.5117141,-80.3572575,19149
La Concepcion,8.5173358,-82.6239581,18774
Veracruz,8.894367,-79.6239841,18366
Pedregal,8.3788347,-82.4264963,17427
Puerto Armuelles,8.2783963,-82.8628831,16797
Sabanitas,9.341795,-79.799008,16748
Puerto Caimito,8.8719174,-79.7220642,16496
Las Lomas o Llano del Medio,8.4285205,-82.3918606,15703
Puerto Pilon,9.3624367,-79.7952033,15454
Villa Unida,9.1773004,-79.6177822,14854
San Juan,9.2223686,-79.6331839,14574
San Vicente,9.1141234,-79.5916441,14109
Puerto Escondido o Urbanizacion El Esfuerzo,9.3341166,-79.8720657,13114
Chepo,9.1666243,-79.0965759,12912
Volcan,8.779193,-82.6434497,10286
Urbanizacion El Lago o La Feria,9.3549263,-79.8579185,9788
Las Tablas,7.7697501,-80.2734523,8939
Almirante,9.2946617,-82.3981044,8744
Los Algarrobos,8.4975261,-82.4237531,7887
Sona,8.0057948,-81.3198122,7669
Barriada Juan Demostenes Arosemena,9.2280521,-79.6294513,7589
El Valle,8.6039062,-80.1286084,6914
Anton,8.3947847,-80.2673017,6851
Chilibre Centro,9.1446786,-79.6148983,6813
La Villa de los Santos,7.9353284,-80.412199,6718
San Pablo Viejo Abajo,8.4479932,-82.4899581,5992
Rio Hato,8.3793569,-80.1638042,5615
Nata,8.3358958,-80.5204209,5470
Bocas del Toro,9.34072,-82.2477556,5380
Alto Boquete,8.7364758,-82.4343891,4746
Lidice,8.7486088,-79.9077278,4245
Las Margaritas,9.1926775,-79.0837756,4165
Buena Vista,9.2760439,-79.697747,4077
Ocu,7.9507203,-80.7776645,3939
Bejuco,8.605079,-79.8876814,3897
Villa Rosario,8.7776139,-79.8751569,3843
Nueva Gorgona,8.5584181,-79.8801773,3530
Gualaca,8.5306496,-82.298758,3453
Capira,8.7586644,-79.8813168,3432
Las Lajas,8.5405367,-79.9055122,3291
Bugaba,8.4934047,-82.6150736,3263
Guarare,7.8172925,-80.2798674,3243
Las Tablas,9.5423424,-82.7401997,3230
Canazas,8.3173562,-81.2116989,3219
Vista Hermosa,8.5263991,-80.3747131,3063
Parita,7.9982775,-80.5201139,2864
Tole,8.2408881,-81.6698063,2794
Atalaya,8.0432765,-80.9249428,2686
Siogui Abajo,8.4822089,-82.662891,2648
Nueva Italia,9.3084618,-79.8056962,2604
Pese,7.9086298,-80.6143273,2565
Divala,8.413825,-82.714365,2506
Chiriqui,8.3862621,-82.3211697,2429
Dolega,8.5651175,-82.4137313,2425
Chame,8.5814095,-79.8850199,2362
Meteti,8.5001596,-77.9773068,2298
Bajo Boquete,8.7762188,-82.4357436,2257
Quebrada Bonita Adentro,9.2974521,-79.7083594,2229
Macaracas,7.7376533,-80.5495093,2224
La Pena,8.1321129,-81.0269411,2223
Progreso,8.4533261,-82.8367376,2211
Ustupu o Isla Conejo Pintado,9.1351519,-77.9307705,2180
Capellania o Las Guabas,8.3036685,-80.5539698,2122
La Mesa,8.1534687,-81.1856413,2090
Santa Marta,8.5230713,-82.7003711,2037
El Valle de San Francisco,9.0558192,-79.555184,2025
El Silencio,9.3854382,-82.5339955,2017
Nuevo Emperador,9.0076232,-79.7231578,2003
Guabito,9.493379,-82.6125314,1978
Los Algarrobos,8.1132542,-81.0134581,1977
Farallon,8.3565825,-80.1372264,1967
Escobal,9.1474032,-79.9660218,1936
Juan Diaz,8.4556261,-80.2935276,1935
Montijo,7.9897022,-81.0568814,1932
Pedasi,7.5250624,-80.0197641,1920
La Pintada,8.5990625,-80.449646,1917
La Esperanza,8.4025207,-82.7886787,1890
Playon Chico  o Ukupseni,9.3078675,-78.2364007,1849
Aserrio de Gariche,8.4849905,-82.7968083,1804
San Francisco,8.2447085,-80.9724323,1785
Paso Canoas Internacional,8.5308835,-82.8347868,1774
Santo Domingo,7.7524509,-80.2420195,1772
Llano Marin,8.487772,-80.3335267,1757
La Palma,8.4040514,-78.1391436,1728
Nuevo San Carlitos,8.4647606,-82.439607,1724
Sortova,8.5518652,-82.6460731,1706
Finca 4,9.403977,-82.5041397,1700
Yaviza,8.1583476,-77.6927533,1700
Gatun o Rio Gatun,9.2874422,-79.7625839,1679
Santa Maria,8.1140871,-80.6646316,1679
Urbanizacion San Lorenzo,9.1332659,-79.5349805,1668
Boqueron,8.4991354,-82.5686671,1658
Calzada Larga,9.1749908,-79.5612263,1656
Santa Clara,9.0415689,-79.7554371,1653
El Roble,8.1702359,-80.6594083,1648
San Isidro,8.5356653,-82.8236511,1648
Finca 63,9.4524127,-82.4844599,1638
Torti,8.9241001,-78.399215,1611
Achutupu o Isla Perro,9.1983751,-77.9867273,1586
Guarumal,8.3490308,-82.5343742,1575
Cerro Punta,8.8541271,-82.5790297,1568
Ogobsucun o Ensenada de Coco,9.1332141,-77.9260483,1562
Guarumal,9.1689118,-79.534382,1552
La Loma,8.1714684,-80.6426094,1542
Finca 32,9.4298662,-82.5562932,1541
Chiriqui Grande,8.9509592,-82.1195526,1525
El Giral,9.2460923,-79.6945281,1522
Churuquita Grande,8.5990672,-80.2708686,1518
Santa Fe,8.6586325,-78.1590331,1499
Nuevo San Juan,9.2252843,-79.6642872,1494
Tonosi,7.4087248,-80.4404048,1478
Jaque,7.5169371,-78.1588911,1466
La Mesa,9.1729226,-79.2772861,1448
San Jose,8.5352826,-79.9239973,1444
San Antonio,9.1729017,-79.5474331,1435
Volcancito,8.7735536,-82.4559208,1434
Potrerillos  Abajo,8.6518964,-82.475943,1423
Los Pollos,8.4049925,-80.1589693,1419
Santa Rita,8.8635763,-79.8803562,1417
Ailigandi o Manglar,9.2237574,-78.0190764,1408
Kusapin,9.1817984,-81.8879162,1408
Portobelo,9.5530286,-79.6569278,1393
Residencial Tanara,9.1314132,-79.2230932,1391
Bisira,8.9033677,-81.857784,1383
Boca de Parita,8.0057204,-80.4478258,1381
Cerro Cama,9.0280744,-79.9054972,1376
Rio Duque,9.2627603,-79.6778692,1374
Alanje,8.4026989,-82.5578496,1373
Rio Sereno,8.8204201,-82.8529245,1368
Plaza de Caisan,8.7420898,-82.8166433,1363
Santa Clara,8.8432071,-82.768051,1360
Barranco Adentro,9.5326068,-82.7312398,1349
Caimitillo,9.1600046,-79.5345705,1345
Ciudad El Amanecer,9.140113,-79.5520397,1343
El Rincon,8.1188096,-80.615238,1341
Palmas Bellas,9.2283756,-80.0850266,1337
Quinteno,8.4721902,-82.394946,1324
Churiquita Chiquita,8.5681076,-80.2794596,1309
Cocle,8.4667212,-80.4109337,1298
Manaca Norte,8.3400465,-82.8085896,1294
Las Palmas,8.1368489,-81.4560241,1291
Maria  Chiquita,9.4397674,-79.7533508,1268
Las Guias Oriente,8.4190299,-80.0734668,1261
Gomez,8.5665435,-82.736483,1257
Barriada Kunanega,9.0592245,-79.5587973,1247
San Antonio,8.071843,-80.931531,1247
El Espave,8.6635469,-79.8723865,1236
La Mesa,9.4958694,-82.6753386,1235
Rio Rita,9.3042155,-79.7926528,1222
Manaca Civil,8.3198888,-82.8140938,1220
Finca 24,9.4223177,-82.5555871,1218
Kankintu,8.8450495,-81.8145803,1218
Santo Domingo,8.5121306,-82.7145971,1216
Yandud o  Nargana,9.4444073,-78.5864071,1215
La Colorada,8.0169341,-80.9822049,1214
La Represa,9.3377651,-79.8390833,1213
Nuevo Caimitillo,9.2107749,-79.5435849,1209
La Victoria,8.4983659,-82.6010635,1193
San Ignacio de Tupile (Dad Nakued Dupir) o Isla Gallina (Kannir Dup),9.2937192,-78.1514575,1192
Garachine,8.0654955,-78.367335,1188
Punta Pena,8.9165901,-82.1848726,1187
El Cope,8.6201551,-80.5784725,1176
La Espigadilla,7.8905693,-80.3873189,1172
Valle del Risco,9.2255711,-82.4289111,1171
Loma Flores,9.1631253,-79.9647659,1169
El Cortezo,8.3480985,-80.5900938,1157
Paso Ancho,8.8147274,-82.623882,1156
San Andres,8.6040917,-82.7251643,1152
La Tiza,7.754822,-80.2880388,1150
La Estancia Mendoza,8.9142714,-79.7963161,1145
La Palma,7.6922067,-80.1904827,1144
Barriada Theobroma,9.4274735,-82.5732536,1139
El Cano,8.4123524,-80.5173995,1129
Finca 51,9.4930456,-82.5857635,1119
El Espino de Santa Rosa,8.0944231,-80.8195339,1113
Siogui Arriba,8.5437768,-82.6793429,1112
Los Anastacios,8.5329229,-82.4193591,1110
Pueblo Nuevo,8.8827671,-82.2068768,1109
La Enea,7.8321926,-80.2731887,1105
Paso Canoas Arriba,8.5651627,-82.8221464,1090
Celmira,8.5365864,-82.7987615,1087
Finca 33,9.4217149,-82.5571479,1084
El Valle de La Union,9.238,-79.6600452,1081
El Ejido,7.9173341,-80.3808043,1079
Tijeras,8.4723789,-82.5523072,1075
Potrerillos Arriba,8.6879814,-82.492694,1074
Urbanizacion Nuevo Amanecer,9.4022061,-82.4979975,1073
Rio Grande,8.4263808,-80.4855655,1070
Caimito,8.5487746,-82.423929,1066
Finca Blanco,8.3838388,-82.8754068,1063
Rio de Jesus,7.984029,-81.1614064,1060
Llano de Piedra,7.6656837,-80.5625136,1054
Aguas Blancas,8.4967712,-80.3118966,1053
San Felix,8.2909801,-81.8703554,1051
Entradero,8.5681259,-80.2107519,1049
Villa Carmen,8.8046012,-79.8691349,1043
El Uvito,8.1203596,-80.9840576,1037
Puente Negro,9.4900121,-82.604671,1032
Caimito,8.6263495,-80.2375101,1032
Chichica,8.3660118,-81.6679262,1026
San Lorenzo,8.3135266,-82.1084125,1025
Santa Ana Arriba,7.9329125,-80.3657917,1025
Mamitupu o Isla Mamey,9.1899277,-77.9739464,1020
Barrio Guadalupe,8.8687333,-82.5627718,1019
El Coco,8.3963843,-80.3569408,1017
Bagala,8.4705231,-82.5294437,1015
Llano Largo,7.9071713,-80.4238645,1013
Las Lajas,8.2451727,-81.8698562,1012
Agua Buena,7.8365091,-80.3968264,1012
Union de Azuero,9.1548239,-79.1606601,1004
Los Uveros,8.5324077,-80.395811,999
Nuevo Mexico 2,9.1697335,-79.5418749,999
El Cristo,8.2515659,-80.6151923,989
Colorado o Kilometro 32,8.4190701,-82.8393695,989
Vaquilla,8.6964438,-80.1991459,980
Rincon Largo,8.5323297,-82.4114369,979
Los Boquerones,8.0828832,-80.8506948,970
Santa Fe,8.5100873,-81.0781065,968
San Miguel,8.4557511,-78.9371665,967
Cerro Sombrero,8.3076426,-81.6795155,966
Los Canelos,8.1194482,-80.7103411,965
El Laguito,9.1684844,-79.5439498,964
Alto Quiel,8.8128676,-82.4751506,963
Cermeno,8.7430943,-79.8452741,962
Sajalices,8.6805357,-79.8702878,962
Wala,8.9864902,-78.0624126,955
Villas de La Alameda,8.9500116,-79.7237961,950
Llano de Santa Rosa,8.7605856,-79.8630929,944
Monagrillo de La Soledad,8.1306257,-80.982204,939
La Gloria,9.3373842,-82.4877491,930
Carti Sugtupu,9.4706925,-78.9610457,927
San Miguel Centro,8.7391064,-80.1710603,926
El Cocal,7.7403756,-80.2785299,926
Alto de La Estancia,8.5924914,-80.1788428,920
Palmira Centro,8.7438231,-82.4523106,920
El Choclo o Barriada 8 de Noviembre,7.7673139,-80.2829712,918
Finca 44,9.4783224,-82.4862018,917
Nuevo Chagres,9.2009329,-79.6334223,915
Nuevo Mexico 1,9.1660065,-79.541858,908
Mulatupu,8.947515,-77.7501675,906
Tinajas,8.5578695,-82.4622567,905
Horconcitos,8.3168388,-82.1457524,901
Rio Congo,8.9661518,-79.7598196,898
Mirya Ubigantupu o Soledad Miria,9.44653,-78.9001796,896
Paris,8.0506457,-80.5569851,894
Las Minas,7.7990795,-80.7460085,889
San Juan de Dios,9.1300829,-79.2197639,889
La Estrella,8.5199532,-82.6726193,885
Veladero,8.2360239,-81.6541445,885
Nuevo Guarare,8.944026,-79.7187456,885
Hato Viejo o El Valle,8.4245241,-82.3421193,884
Puerto Pina,7.5830811,-78.1782905,883
Querevalo,8.3741783,-82.5203767,882
La Candelaria,8.444308,-80.4928746,881
Pozo Azul,8.6416925,-80.2079403,880
Boca de Cupe,8.0337777,-77.5867371,877
Tubuala,8.9207826,-77.7238017,877
El Jagüito,8.1736121,-80.6854736,872
Nombre de Dios,9.5809655,-79.4701675,872
Las Ollas Arriba,8.8093554,-79.9063397,872
Nuevo Bambito,8.8154203,-82.6121718,870
Chuchupate,8.433829,-82.8643523,868
Bijagual,8.3720837,-80.2605988,865
Bocalatum,8.5908755,-82.5854818,864
Coclesito,8.8102653,-80.5559277,863
Canazas Abajo,8.1468211,-80.7193678,861
San Carlos,8.4760649,-79.9585587,857
Aguacatal,8.4644645,-82.4631254,856
Rio Sidra o Urgandi,9.4511952,-78.8329861,856
Coetupu o Isla Venado o Caledonia,8.9030937,-77.6956882,856
Gariche,8.4882765,-82.7784328,852
La Mata,8.0805704,-80.8860143,850
Pueblo Grande o Entrada de Sardinilla,9.2615562,-79.6655835,843
Jacu,8.483609,-82.8164131,840
Finca 64,9.4583947,-82.4950838,838
Santa Rosa,7.9488183,-80.7629843,837
Caimito,8.8120748,-79.9485019,836
Guaca Arriba,8.5495588,-82.4914359,834
Berba,8.3828199,-82.8097725,831
Remedios,8.2269329,-81.8304289,829
Canaveral,8.5180453,-80.4297953,827
Santa Maria,8.4549515,-82.8453888,827
Bella Vista,8.5484049,-80.4055491,823
Las Matas,8.3083528,-81.864925,823
Las Cruces,7.8255854,-80.4293038,823
Barriada 14 de Abril,9.5316248,-82.7202728,821
Las Lomas,8.5008372,-80.3828245,821
Las Palmitas,7.7670143,-80.2903431,821
El Barrero,7.933036,-80.5226156,820
Membrillo,8.5830979,-80.219582,818
Capeti o Capetuira,8.0600724,-77.5733054,815
San Valentin,8.3672495,-82.7795885,814
Zapallal,8.6527651,-78.1320363,813
Quebrada de Loro,8.3569485,-81.9223821,813
Cuervito Abajo,8.4697591,-82.840143,812
Lluvia de Bendiciones,8.9674946,-79.6890839,812
Rambala,8.929355,-82.1785104,808
Pena Blanca,7.7187411,-80.2835168,804
El Congo,8.443538,-80.420806,803
Miraflores,8.6322612,-80.2787763,799
Palmarito,8.8281306,-82.8223426,797
Potuga,8.0675456,-80.6209111,795
Calobre,8.3196961,-80.8401188,795
Miraflores,8.8401528,-82.8429893,786
Isla Tigre o Mamartupu,9.4323695,-78.5218894,784
Rincon de las Palmas,8.5552823,-80.2514749,781
Barriada Las Perlas,8.1376297,-80.9595243,778
El Gago o Puerto El Gago,8.3696765,-80.4270037,776
Churube Abajo,8.4007394,-80.5453423,774
Dos Rios Arriba,8.5554807,-82.3986579,773
Finca 62,9.4484289,-82.4855085,772
Montilla,8.4613315,-82.4774419,772
Tikantiki o Niatupo o Isla del Diablo,9.4228508,-78.4810947,772
Sesteadero,7.7451727,-80.2514127,771
Burica Sur,8.3855084,-82.9089475,768
Rincon Largo,7.9454968,-81.0648461,767
Orillas del Rio,8.3611848,-82.5079149,762
Canaza,8.8755311,-82.1766472,760
Norteno,9.007839,-82.3161261,760
Barriada Los Pinos,9.1646448,-79.5517226,759
Cerro Tigre,8.940786,-79.7090266,758
La Raya de Santa Maria,8.167325,-80.8189343,757
San Miguel del Yuco,8.5535697,-82.626858,756
Jaramillo Arriba,8.7829628,-82.4207522,753
Sasardi,8.9438902,-77.7527537,748
Canacillas Via Aeropuerto,8.0946544,-80.9385248,745
Portachuelo,8.4738183,-82.4208669,743
Santa Marta,8.6531147,-80.5589674,742
La Colorada,8.9907635,-79.9146622,742
Pueblo Nuevo,8.3917162,-80.2047764,741
Bastimentos,9.3487298,-82.209977,738
Isla Carenero,9.3433094,-82.2338989,737
Salitrosa,8.2062524,-80.6349714,729
Mendoza,9.009087,-79.8493795,729
El Real de Santa Maria,8.1090783,-77.7324408,728
Aguas Claras o Icanti,9.2172244,-78.6937563,724
Pueblo Nuevo,8.1513442,-77.6918988,723
Taboga,8.7923742,-79.5572528,722
Loma de San Pedro,8.4311741,-82.5531773,719
Mariato o Llano de Catival,7.6460181,-80.9904588,716
Monte Lirio,8.8012953,-82.8189655,715
Tres Quebradas,7.8446444,-80.4024687,715
Aguacaton,8.3495444,-82.8010363,711
Trinidad de las Minas,8.7776782,-79.9927113,711
Ipeti Kuna,8.98535,-78.5029453,711
Cerro Iglesia 2,8.3042556,-81.7938151,711
Agua Buena,8.3002371,-82.8734445,710
Alto Lino,8.8022016,-82.4348745,706
Chorrillo,9.0862945,-80.050384,705
Villa Limon,9.2932037,-79.7858663,705
Villa Alondra,9.3888181,-79.7821712,705
Llano Sanchez,8.1990719,-80.7043002,702
Machuca,8.6256129,-80.5460924,702
Jaramillo Centro,8.7701002,-82.423175,702
Nueva Jerusalen,8.978376,-79.6778293,701
Nuevo Paraiso,9.2769981,-82.4126442,699
Barriada San Jose,9.3327149,-79.8061588,699
Cabuya,8.5764694,-79.9233023,699
San Carlitos,8.4885309,-82.4541666,698
Puente de San San,9.4694717,-82.5401459,695
Las Delicias,8.5444034,-80.3669555,693
San Bartolo Linea,8.3245229,-82.879424,693
Campana,8.7196403,-79.8902923,693
Tribique,7.9927884,-81.3171808,693
Rincon,8.4671023,-82.281508,692
El Puerto,8.2162175,-81.8110408,692
La Meseta,8.5569965,-82.5929077,691
Porton,8.5636492,-82.7892818,689
Los Hatillos,7.9350295,-80.5461135,687
El Bongo,7.9485831,-81.0483755,686
Puerto Indio,8.0199019,-78.2042172,686
San Jose,8.3550904,-81.0403441,680
Union Choco,8.1020528,-77.6049907,679
Rio Rita Arriba,9.3159101,-79.7887841,678
Agua Fria 2,8.8177862,-78.1870237,678
San Pedro,8.725815,-80.2219574,677
El Nance,8.4709189,-79.9658087,677
Pajonal Abajo,8.5867363,-80.2467582,676
Finca 2,9.4128021,-82.480839,675
Jobo Dulce,7.9073896,-80.4324737,675
El Pedernal,8.1435749,-80.7859317,675
Las  Mercedes,8.4016537,-78.1452889,671
Cerro Pelado o Jugrig,8.1618115,-81.5456193,667
El Roble,8.5102806,-82.7750999,666
San Pablo Viejo Arriba,8.4800152,-82.5052674,666
San Francisco,8.6365029,-82.7313845,665
Nuevo Paraiso,9.2770354,-79.6315303,663
La Soledad,8.1417903,-80.9933528,663
El Flor,8.5694725,-82.4369786,660
El Porvenir,8.2330054,-81.8331187,659
San Vicente,8.5873045,-82.6352966,656
Exquisito,8.5362129,-82.7706067,655
Santo Tomas,8.3946081,-82.6482042,653
Sambu,8.0258602,-78.2094532,653
Canazas,8.910447,-78.2361429,653
Boca de Jebay,8.4817536,-82.0886705,653
Juan Gil,9.1797593,-79.2554931,652
El Limon,9.2567619,-79.8127868,651
Piedra Candela,8.879501,-82.7668485,648
El Santo,8.5715215,-82.678186,647
Pueblo Nuevo,8.3006368,-82.0997782,647
Finca 52,9.4997986,-82.6083532,645
Tavidal Arriba,8.6746576,-80.1726328,643
San Juan del Tejal,8.4874595,-82.4912388,641
Hato Chami,8.4470375,-81.7686475,641
El Frances Arriba,8.6169274,-82.4174341,640
Cerro Ortiga,8.3400393,-81.7760733,638
Chupampa,8.0822466,-80.7767438,637
Armila,8.6626931,-77.4514141,637
El Cacao,8.7563062,-80.0105988,636
Deborah,9.5167049,-82.5935173,635
Cerro Campana,8.710435,-79.9043663,635
Finca 1,9.4080543,-82.4949145,634
Llano Grande 1,8.440185,-80.1833864,634
El Higueron,8.4973089,-82.2861262,631
La Mata,8.083904,-80.8843162,631
Cerro El Castillo,8.9610503,-79.6787578,630
Canita,9.2223602,-78.8950875,629
Silimin,8.2884444,-81.8754558,626
Las Guabas,8.3864714,-80.445522,625
El Espino,8.1987878,-80.9604708,620
Quebrada Guabo,8.3291943,-81.8319203,619
Los Olivos,7.9180617,-80.4893418,618
Monte Claro,8.9287405,-79.6683083,618
Dos Rios,8.5326021,-82.3842565,617
Lajero Arriba,8.2905149,-81.767661,617
Angostura de Cochea Arriba,8.5498119,-82.3818271,615
Mata Ahogado,8.6270692,-80.0962589,614
Cerro Ceniza,8.3301345,-81.7652673,612
Los Cabezos,8.7896249,-82.4401241,611
Bella Vista,8.8058785,-82.6147298,611
Las Albinas,9.1733153,-79.5791149,610
Paritilla,7.629726,-80.1739644,608
La Pita,8.8157547,-79.8459437,608
Tambo,8.6621786,-80.294205,607
Tobobe,9.1209352,-81.8336939,607
El Valle de La Mina,8.9245354,-79.6547263,605
Toabre,8.6527719,-80.3207514,603
Quebrada Pastor,9.2004132,-82.365694,602
Macano Arriba,8.568593,-82.5714169,601
El Porvenir,8.105076,-81.0038232,601
Nuevo Mexico,8.4170591,-82.7229703,599
Salamanca,9.3343374,-79.60095,598
La Bonita,8.619032,-82.7639256,598
Sora,8.6351321,-80.008985,598
Santa Clara,8.3832202,-80.106969,597
Pena Prieta,8.3667728,-81.710731,596
Turega,8.6115641,-80.1955924,591
Finca 41,9.4909036,-82.6237917,589
El Laguito,9.3486345,-79.8374038,589
Mostrenco,8.3926242,-82.5735062,589
San Antonio,8.7888704,-82.7950812,589
Chorrerita o Monte Lirio,8.4621467,-80.3191369,587
Varital,8.492065,-82.5847278,586
El Alto de Capira,8.7351524,-79.8837319,585
Bahia La Ballena,8.9230859,-82.0757934,584
Guayabal,8.459491,-82.3531458,582
Buen Retiro,8.417738,-80.2346184,581
San Jose,7.9572758,-80.8438487,580
Pilon,7.9567481,-81.0720285,580
La Tollosa,7.9905256,-81.3251334,580
Cerro Mosquito,8.3495482,-81.6877999,579
Finca 61,9.4545588,-82.4769336,578
Jaramillo Abajo,8.7535387,-82.4182827,578
Trinchera,7.7994249,-81.2750442,578
Santa Catalina,7.631699,-81.2537707,578
La Mina,8.9168,-79.6649254,577
El Barrero,8.1564718,-80.6907235,576
Cerro Cabuya,8.548844,-82.5521619,576
Alto Quiel,8.7233234,-82.8886498,576
Nuevo Tonosi,9.5533124,-79.6200726,575
Sabana Grande,7.881794,-80.6378512,574
Akuanusatupu o Corazon de Jesus,9.4462996,-78.5830812,574
Maje,8.7316504,-78.5551219,573
Sofre,8.6206079,-80.2188781,571
Paso Canoas Abajo,8.5103808,-82.8316151,568
Morti,8.8424569,-77.9753908,567
Boca de Soloy,8.4972813,-82.0719568,567
Las Ollas Abajo,8.8418105,-79.9052515,566
El Higo,8.4516476,-80.0367215,566
Las Barreras,8.1047463,-80.9973863,566
Cerro Algodon,8.3573782,-81.6460574,566
Palenque,9.2072551,-79.6790165,565
Quebrada de Vueltas,8.6852529,-82.8384897,564
La Cresta,8.6379929,-79.8791259,564
Punta Alegre,8.2952498,-78.2540886,563
La Pasera,7.8005462,-80.3023621,563
Mansucun,9.034005,-77.8091182,563
La Noneca o Llanito Verde,8.905428,-79.8952546,560
Nance Risco,9.25619,-82.4815812,558
Palo Verde,8.3877857,-80.1972237,556
Llano Grande,8.6246696,-79.9230554,556
Finca 43,9.4739553,-82.4996384,555
Sabanas de Chilibre,9.157907,-79.5927009,555
Guayabal o Alto Guayabal,8.3516094,-81.8703344,555
San Pedro del Espino,8.1378088,-81.0840681,554
Yancib Diwar o Carreto,8.7816834,-77.5798111,553
Los Monos o Arimae,8.6908606,-78.1490101,552
Rio Potrero,8.9616748,-79.6927977,552
Naranjal,9.1344185,-79.2239554,552
Tebujo,8.3949643,-81.7312358,552
El Potrero,8.5210999,-80.5220566,550
Llano Limon,8.2503634,-81.6554921,549
Las Minas,8.6406538,-80.3956765,548
Nueva Providencia,9.2718212,-79.8060626,548
Nutivi,8.8706448,-81.8410307,546
Finca 3,9.4243189,-82.4734472,545
Santa  Rita,8.4976177,-80.1881251,545
El Banco,8.691655,-82.5159089,542
Isla Tigre,9.1797451,-82.0859755,540
Isla Tigre,0,0,540
Isla Tigre,9.180377,-82.0966922,540
Los Remedios,8.1435823,-81.0197291,540
Rio Piedra 1,9.4574645,-79.7236458,538
Las Tablas Abajo,7.793808,-80.2525335,538
Cucunati,8.5790436,-78.2556905,537
Llano Junco,8.3531742,-81.7544495,537
Pueblo Nuevo,8.5347291,-82.5062536,535
Oma,8.3476654,-81.7989786,535
Pueblo Nuevo,8.5800963,-82.4217362,534
Rincon Largo,8.1551047,-81.0494396,534
Maraca o Llano Majagua,8.3762069,-81.7334856,534
Puerto Obaldia,8.6663192,-77.4192235,533
La Valdeza,8.7869885,-79.9660451,532
San Miguel,9.2258688,-79.2535271,532
Mamartupu,9.452967,-78.8329809,532
El Chiru,8.4031235,-80.1897982,531
Los Cerritos,7.8001412,-80.6092001,531
Veladero,8.4304522,-82.5682499,530
Cayo de Agua,9.1600585,-82.0459103,529
San Juan o Cerrillos,8.2783111,-81.9961533,529
Monte Verde,8.2741397,-82.8734684,528
Narbagandup Dummad o Naranjo Grande,9.4614424,-79.0260621,528
Ciruelito,8.4592723,-80.451629,526
Cerro Tijera,8.3321205,-81.6634662,526
San Cristobal,9.2888207,-82.2647274,525
La Esmeralda,8.2681728,-78.9245965,524
Miguel de La Borda,9.154451,-80.3042285,523
San Jose,7.6688206,-80.2492962,523
San Agustin,7.9193476,-80.4435706,523
Las Matas,8.4714464,-80.0965498,522
Majagual,8.3341583,-82.7624422,521
Caisan  Abajo o Caisan Centro,8.7627777,-82.7915182,521
Sabana Grande,7.83904,-80.3668266,521
Finca Corredor,8.348769,-82.8720471,520
Hicaco,7.6524901,-81.203663,520
Sonadora,8.5521842,-80.3264199,515
San Pedro,8.5612256,-82.8030777,515
Pueblito,8.2604822,-81.977865,515
Camaron Arriba,8.3753442,-82.0035446,515
Puente del Medio,9.4857715,-82.6005773,514
Sagreja,8.6620597,-80.3402652,514
Los Chiricanos,8.9780468,-82.214378,513
Alto Cerron,8.7671642,-82.8589509,512
Los Olivos,8.3263419,-82.783177,511
Piedras Gordas,8.6385513,-80.5091863,510
Los Castillos,8.0259913,-81.1156829,510
Chiguiri Arriba,8.6705401,-80.1866264,509
Ponuga,7.8825017,-80.9768701,509
Asentamiento Almendro,8.4294529,-82.8754415,508
Los Pozos,7.7880258,-80.6457099,508
Quira,8.4361779,-82.8556721,507
Guabas Arriba,8.4743769,-80.261541,506
Puerto Vidal,8.0508296,-81.604854,506
Finca Balsa,8.4289089,-82.897259,502
Portuchada o Santa Rosa,8.4550548,-77.9249784,502
Villa Darien,8.5451836,-78.0079686,502
Carti Mulatupu,9.4676855,-78.9493504,502
Mague,8.6674752,-82.3645351,501
Quebrada Honda,8.6245887,-78.116485,501
La Soledad,7.8785297,-81.2688847,500
El Limon,8.0569835,-80.7724891,498
Portobelillo,8.0192517,-80.5943421,497
Piriati o Piriati Embera,9.0538106,-78.6190744,497
Buenos Aires,8.6328087,-79.9456473,496
Navagandi,9.0239342,-77.802362,496
Manchuila,8.477569,-82.7143114,495
Palma Real,8.6578196,-82.5193028,495
Bucori,9.1109041,-81.897509,495
Pocri,7.6587188,-80.1194989,494
Entre Rios,8.8699863,-82.5788198,493
Macano Abajo,8.5520674,-82.5736625,490
El Embalsadero,8.1040715,-81.047907,490
Plan de Chorcha,8.4678682,-82.157344,490
El Calabazo,8.6278413,-80.4932338,489
Boca de las Minas,8.7056423,-80.1290461,487
Sardinilla,9.3019172,-79.6374434,487
Corozal,8.3876403,-82.4970069,487
Cerro Banco,8.4604821,-82.0290902,487
Hato Juli,8.3520059,-81.8484444,487
El Piro o San Martin de Porres,8.2129254,-81.5310559,487
Icacal,9.1906445,-80.1502112,486
Huile,9.0341563,-79.7371523,486
Lajas Blancas,8.4166141,-77.8087506,485
Las Nubes,8.8878983,-82.6055798,484
El Naranjal,8.6519465,-80.3392064,483
Quebrada Lopez,9.3233217,-79.7983097,483
Veladero,8.4326157,-82.2877442,482
Las Uvas,8.4619142,-79.9971192,482
Trinchera,8.6112684,-81.6563083,482
Finca 31,9.438033,-82.5608172,480
Gomez Abajo,8.5500482,-82.7256517,480
Marraganti,8.4653961,-77.6981643,479
Sabana Bonita,8.549586,-82.5177348,478
La Gloria,9.0188204,-79.736999,478
Cerro Iglesia 1,8.2898169,-81.8018849,478
Llano Bonito No.1,8.4370558,-80.1612877,477
Guarumal,7.797745,-81.2580074,477
Canacillas Arriba,8.1433418,-80.9518689,475
Los Pinos,9.314528,-79.7962542,474
Santa Lucia o Batallita,8.4111929,-80.5344532,473
La Madera,8.5529232,-80.5345422,472
Manchuila,8.4801868,-82.7075922,472
Brisas del Naranjal,9.1337741,-79.2194439,471
Membrillo Arriba,8.5869151,-80.1997454,470
Altos de Divisa,9.2550978,-79.7139723,470
Nuevo Ocu,9.3259169,-79.6131997,470
Quebrada Arenas,8.3071662,-81.7208762,470
San Pedro,8.3600875,-82.782512,469
Quebrada Hacha,8.3465943,-81.9885946,468
Santa Rita,8.6656549,-82.5635449,465
Pozos Arriba,7.7770049,-80.6403878,465
Sangrillo,8.3435623,-82.8952287,464
Cerro Gavilan,8.4123455,-81.7093663,464
El Tirao,8.775846,-78.1772343,463
Monte Oscuro,8.7279358,-79.7913651,463
Altamira,8.7942633,-82.8646993,462
Finca Teca,8.3616608,-82.7684841,460
Hato de San Juan de Dios,8.2775573,-80.6676467,458
Santa Rosa,8.5339234,-82.4314492,457
Martin Grande,8.0733213,-81.0060493,457
Bayamon,7.969138,-78.2208556,457
Calle Larga,8.4691711,-80.2503601,456
Alto Saldana,8.3319927,-81.6832199,456
El Higo,8.5847521,-82.3915179,455
Quebrada de Piedra,8.0965598,-81.68192,455
Bajo El Cedro Abajo o El Cedro Abajo,9.1048158,-82.2950563,454
Quebrada Ancha,9.2885027,-79.745354,454
Milla 23 o Puente Blanco,9.4809508,-82.5958454,453
Playa Coronado,8.5419747,-79.8860476,453
El Salto,8.7915187,-82.4598318,452
Los Naranjos,8.7943381,-82.4461127,452
El Pedregoso,7.9374853,-80.6403207,452
Cerro Concha,8.3160988,-81.8280112,452
Las Huacas del Quije,8.4692006,-80.7523987,451
Las Mercedes,8.4428929,-82.7131749,451
El Retiro,8.4750241,-80.1580103,450
Canta Gallo,8.3591274,-82.6325569,448
Cuervito,8.4909512,-82.8350164,448
Agua Fria 1,8.8560918,-78.195992,448
Saboga,8.6253247,-79.0593701,447
Dos Canos Adentro o Dos Canos Abajo,9.5582626,-82.7541025,446
Santa Marta Norte,8.5350717,-82.7073,446
Finca Baco,8.3566311,-82.7493617,445
El Higo,8.2164017,-81.3270613,445
Achiote,9.2223305,-80.0189704,444
Cordillera,8.7080694,-82.6015105,444
Uargandup o Rio Azucar,9.431157,-78.6262998,444
Cerro Cacicon,8.3483754,-81.7079874,444
Ojo de Agua,9.2963575,-82.4596056,443
Llano de La Palma,8.2768641,-80.5816154,443
Piedra del Sol,8.0436653,-81.0377392,443
Los Tecales,8.3631589,-82.8002139,442
Carriazo,9.2048212,-79.2411219,441
Villa Belen,8.0843668,-80.996448,441
Flores,7.4840743,-80.4053586,440
Oajaca,8.633305,-80.2061809,439
Penas Blancas,9.3017224,-79.6804961,439
Dominical,8.6733807,-82.7974852,439
Carti Tupile,9.4765206,-78.9606348,439
Canan,8.63519,-77.8066193,439
Llano Grande,8.6311093,-80.4392341,438
Las Quebradas de Turbe,8.7915658,-80.6546066,438
Urbanizacion Juan Pablo Ii,8.9253744,-79.7789353,437
Santa Clara Abajo,8.8110725,-82.7812551,436
Anachucuna,8.7324078,-77.5471438,436
Cochea Abajo,8.506788,-82.3589173,435
San Pablo Nuevo Abajo,8.4246577,-82.498784,435
Chica,8.6661493,-79.9360262,435
El Llanillo,8.0709179,-81.0760637,435
Las  Cabras,7.8772617,-80.5449954,434
Chumical,7.8495454,-80.7342749,433
Garnadera,8.0978107,-81.4786186,433
Mor Aketup o Isla Maquina,9.4535811,-78.8532738,433
San San Druy,9.4328656,-82.6894785,432
El Naranjal,8.2722899,-80.620235,432
La Playita de Bique,8.8936277,-79.6567901,432
Buena Vista,8.6694686,-79.9666569,432
La Huaca,8.1681693,-80.7411962,432
Valle de Agua Arriba,9.2298137,-82.3860873,431
La Victoria,8.3987144,-82.9485862,431
Cuesta de Piedra,8.6881989,-82.6262239,431
Bambito,8.834606,-82.6108627,431
Valle Saron o Bigote,9.1392297,-82.3089861,430
Mosquito,8.7428505,-82.8831235,430
Los Asientos,7.5187794,-80.1326568,430
Palmira Abajo,8.7257543,-82.465053,429
Bongo  Arriba,8.5908867,-82.6252142,429
San Miguel Arriba,8.6855184,-80.1485869,428
El Lirio,9.0267031,-79.7811932,428
Bajo de las Trancas,8.327745,-81.6349364,428
Pixvae,7.8346559,-81.5766853,427
Cerro Colorado,8.574845,-80.2324116,426
La Ermita,8.4590807,-80.0689004,426
Alto de los Sanchez,8.2494733,-81.213887,426
Las Margaritas,8.0541343,-80.9319593,425
Altos de San Vicente,8.2647148,-82.8789707,424
Punta Chame,8.6445165,-79.7072837,424
Acuatupu o Isla Piedra,9.456059,-78.9983808,424
Punta Escondida,9.0864343,-81.8293109,424
Aguila Arriba,8.6041614,-80.2051821,423
Barriada San Pablo,7.9874144,-81.3291622,423
Finca 67,9.435488,-82.4989666,422
Ojo de Agua,8.4936989,-82.5414862,422
Nalunega,9.5506077,-78.955248,421
El Quije,8.492564,-80.7761991,420
Llano Tugri,8.4777592,-81.7142277,420
Guayabito,8.5438389,-81.4758927,420
Barranco Medio,9.5283003,-82.7118129,419
Oriente,8.894777,-82.209533,419
Dos Rios,9.2644382,-79.6906993,418
Alto de La Mina o Alto de La Mina,8.7083437,-82.8120247,418
Narbagandup Bipi o Naranjo Chico,9.4583001,-79.0213609,418
Portorica,8.3813703,-81.6894334,418
Santa Librada,8.2878876,-77.8121426,417
Cabuya,8.031431,-80.63462,417
Cerro Puerco,8.2904852,-81.7495259,417
Las Guias Abajo,8.1987041,-80.7573823,416
Pina,9.2805827,-80.04453,415
Guabal,8.6345063,-80.2497762,413
Las Flores,7.9132569,-80.5767528,413
Union Santena,8.8366968,-78.6471732,413
Boca de Rio Chiriqui,8.8393985,-81.5631712,413
Pueblo Nuevo,8.6601992,-82.3699503,412
Bajo La Union,8.8305033,-82.8682433,412
Barriada San Andres,9.3345435,-79.8057604,411
El Tigre de San Lorenzo,7.700458,-81.3011531,411
Sardina,8.5556789,-80.3494067,410
Nuevo Chagres,9.2397901,-80.0826756,410
Villa Lourdes,7.8110918,-80.4685895,410
Quebrada El Bajo,8.9366525,-82.1307549,409
Llano de La Cruz,8.1467128,-80.896904,409
El Salto,8.3132367,-77.7587021,409
Barriada 21 de Abril,9.4383292,-82.4965358,408
El Rosario,8.408775,-80.3346718,408
Macano Arriba,8.5902929,-82.572962,408
Mata de Limon,8.4073536,-82.3806537,408
Cuango,9.568385,-79.3119338,407
Llano Culebra,8.3042176,-81.6158418,407
Pueblo Nuevo o Taimati,8.1538004,-78.2448317,407
Ciri Grande,8.7723213,-80.0536372,407
Santa Cruz,8.6312472,-79.8839849,406
Cienaga Vieja,8.4071985,-80.2834329,405
El Encanto Arriba,8.5266512,-80.341986,403
Rovira Arriba,8.640481,-82.5051362,403
Barriada 28 de Junio,8.9762712,-79.6965749,403
La Florida,8.8524993,-79.9935942,403
Gasparillo,8.4994821,-82.0017027,403
San Vicente,8.5638219,-78.0269278,402
Los Hatillos,8.0452064,-80.9793697,402
Potrero de Palma,8.3240529,-81.9867733,402
El Maranon,8.4357844,-80.2156826,400
San Juan de Dios,8.5534907,-80.2278026,400
Residencial Villa Ana,8.440636,-82.451459,400
Los Castillos,7.990366,-80.6165778,400
Buenos Aires,8.4157444,-81.4833247,400
Bucaro,7.3453687,-80.3574981,398
Tavidal Abajo,8.6833847,-80.1925228,397
Loma Grande,8.648049,-80.1697925,397
Mogue,8.2410416,-78.1533888,397
Playa Lorenzo,9.0712741,-81.8647099,397
Cuipo,9.0802171,-80.0518066,396
Corotu Civil,8.3752023,-82.7611331,396
Nuevo Santa Maria,8.5366553,-80.422151,395
Bella Vista,8.8042962,-82.869916,395
Siekin,9.3970916,-82.6662811,394
Tucuti,7.9600276,-77.9325956,394
Finca Ceiba,8.3499342,-82.8353553,393
Higueronal,8.9284711,-78.3071435,393
Hato de San Antonio,8.1531548,-80.6826778,392
Perecabecito o Santa Cruz,8.6545579,-80.3699291,392
San Carlos,8.5211517,-82.5139374,392
La Mesa,7.6615409,-80.6146894,392
La Fragua,8.1654804,-81.0643736,392
El Barro,8.0993001,-81.0591552,392
Hato Pilon,8.4029703,-81.8661844,392
Boca del Monte,8.4064388,-81.7662314,392
Blanco Arriba,8.3641011,-82.9347976,391
Guarumalito,7.8094309,-81.2509431,391
Alto Molejon,8.347632,-81.8175287,391
Quebrada Grande,8.5124162,-82.8157057,390
Sanson 2,8.4055362,-77.8657006,390
La Valencia,7.9887173,-80.5841182,390
California,9.5401116,-82.5909235,388
Cocle del Norte,9.0753963,-80.5717698,388
Nusatupu o Isla Raton,9.4472643,-78.8304723,388
Coclecito,8.7747279,-81.9848596,388
El Barrero o Barrero,8.5581743,-80.3077756,387
Viento Frio,9.5826269,-79.4068989,387
Rio Potrero 1,8.9531726,-79.6842062,387
Santa Cruz,8.2349916,-81.9130426,386
Los Toretos,8.0182853,-81.3244613,385
Villarreal,8.323084,-80.6457053,384
Ola,8.4201944,-80.6504627,384
Loma Muleto,9.3643626,-82.4722179,383
La Laja,7.7351552,-80.2483861,383
La Candelaria,8.6262563,-80.3120023,382
Purio,7.6001513,-80.0830695,382
Bajo de La Mesita,8.1544756,-81.5176094,382
Quebrada Sal,9.2991414,-82.1020792,381
Rio Chiriqui Viejo,8.3652008,-82.7226716,381
La Cantera,8.6418558,-78.1698891,381
Majara,8.7271015,-79.9267005,379
Bahia Azul,9.1417636,-81.8942526,379
Juan Hombron,8.3305034,-80.2081465,378
Buenaventura,9.5326558,-79.6703921,378
Nuevo Burica o San Antonio,8.3724068,-82.8868688,378
Las Canas Abajo,8.5481464,-82.4385071,377
El Bebedero,7.4160171,-80.4593393,377
Alto Ibala,8.3570531,-81.2060389,376
Finca Zapatero,8.3969978,-82.8914427,375
Cerro Pena,8.5819494,-80.0777441,375
Zapotillo,8.0060065,-81.5103711,375
Salamanquita,9.3417444,-79.5900719,374
Canas Gordas,8.749809,-82.9101259,374
Bajo Bonito,8.7160151,-80.0592584,373
Canazas Arriba,8.117236,-80.8950359,373
Pinogana,8.1161942,-77.6885464,372
Briguny,8.3332239,-81.8134715,372
Campo Alegre,9.268986,-79.7016905,371
Colon,8.4980738,-79.9698805,371
Brisas del Rio,8.4925648,-82.6361784,370
La Guaca,7.805989,-80.2728003,370
Cambutal,7.2655177,-80.4878127,370
Santa Cruz,8.9285959,-79.78615,370
La Cantera,8.0804574,-80.9968367,370
Las Penas,7.9133304,-80.4164482,368
Las Mercedes o Villa Laura,9.4145558,-79.7600699,367
Sansoncito o San Francisco,8.4299724,-77.9025423,366
Catrigandi,9.0197792,-78.5922979,366
El Pedregoso,8.2945501,-80.8390483,366
Wichub Uala o Tronco de Hicaco,9.5528965,-78.9521002,365
Quebrada de Agua,7.9870249,-80.7911219,364
Lola,8.0923417,-81.4655159,364
Pena Blanca o  Kinguimbada,8.4670844,-81.6879575,364
Pantan o Boca de Rio Cana,9.0089515,-81.715424,364
El Manantial,7.7864492,-80.2411701,363
Palmas Bellas,8.8856112,-78.2945543,363
Los Hules Abajo,9.0636839,-79.9011886,363
San Ignacio del Cucuy,8.2351439,-81.829601,362
La Laja,7.7911545,-80.4863346,362
La Palma,8.4737391,-79.9963642,362
Quebrada Arena,8.4028827,-82.8201565,361
Guanico Abajo,7.2905508,-80.4302719,361
Mandi Ubigantup o Soledad Mandinga,9.5055845,-79.0398372,361
Alto de Jesus,8.2615219,-81.484115,361
Guarumito,8.9048047,-82.2249256,361
Rio Oeste Arriba,9.2631998,-82.4275446,360
Piedras Gordas,8.4347789,-80.0438597,360
La Soledad,8.4293689,-80.6154228,359
El Guabo,9.0855037,-80.0840604,359
Rincon Hondo,7.8423673,-80.602718,359
El Guayabal,7.8966426,-80.5084901,359
Los Pozos,8.5694074,-79.9727547,359
Rio Piedra,9.2250151,-78.8779158,359
Nuevo Vigia,8.3799778,-77.7642784,359
Alto de  Mango,8.5527849,-82.0773089,359
Cerro Vaca o Hibraudi,8.315535,-81.5700365,359
Valle Junquito,9.3656492,-82.4863272,358
Rio Oeste Abajo,9.2504016,-82.4092031,358
Boca de Rio Indio,9.1919159,-80.1912248,358
Penas Chatas,8.0202786,-80.8020993,358
Milla 2,9.3001613,-82.413573,357
Nuevo Progreso,8.2384611,-77.7713965,357
Quebrada Guabo,9.2991316,-82.5463072,356
Kilometro 24,8.3505362,-82.7894311,356
Wacuco,8.9646354,-78.4563112,356
Palenque,9.5727796,-79.3587906,355
Caldera,8.6529615,-82.3817714,355
Las Trancas,8.6879173,-82.449642,355
Boca del Monte,8.3495968,-82.121668,355
Pucuro,7.9787618,-77.4875809,355
El Pedregosito,7.9242741,-80.6317092,355
Rio Viejo del Solar,7.4239687,-80.4103591,354
El Valle de Santa Cruz,9.2632923,-79.6076646,353
Burica Centro,8.3914001,-82.9018339,353
La Meseta,8.5797274,-82.7472373,353
Puerto Lara,8.6172445,-78.146372,353
El Olivo,8.0727739,-80.7471833,353
Bella Vista,9.3432588,-82.470748,352
La Vieja,8.6762846,-80.2019443,352
Las Merceditas,9.4032482,-79.7738649,352
Guaca Abajo,8.530622,-82.4651004,352
Calabazal,8.2823401,-81.815958,352
El Olivo,8.4531717,-80.5260061,351
Palmilla,8.6595306,-80.18723,351
Los Mortales,8.8547029,-79.9427221,351
Maria Vicenta,8.4492291,-80.0470576,351
Nudobiri,9.2404473,-82.4405927,350
Llano Santo,8.1937397,-80.7301566,350
Las Mineras,8.2629476,-80.5872935,350
Platanal,8.4052116,-80.0841477,350
Guarare Arriba,7.8050227,-80.3574786,350
Llano Bonito,8.5225145,-80.0372362,350
El Anon,8.1630357,-80.9495006,350
El Veladero,8.4688856,-79.971735,349
Santa Clara,8.0691277,-80.9794627,349
Santa Maria,8.5415425,-80.4355654,348
Las Acequias,8.6209736,-82.448419,348
Kuerima,8.3531143,-81.8252067,347
Miramar,8.9975643,-82.2463705,346
Palo Alto,8.7998622,-82.4223797,346
Ipeti Choco o Ipeti Embera,8.9802421,-78.5145507,346
Nueva Jerusalen,9.1629742,-79.5438057,346
Revolucion o Colorado Centro,8.4246449,-82.8274446,345
Cienegüita,8.3176645,-82.0037814,345
El Carate,7.7302951,-80.2948156,345
Renacimiento,9.2043723,-82.3826836,344
Villa del Carmen,9.0002058,-80.3909398,344
Caisan Primavera,8.7835576,-82.7291053,344
Pueblo Nuevo,8.1793751,-81.535299,344
Sabaneta de Llano Grande o San Antonio,8.6452629,-80.4418767,342
Tulu Centro,8.7672936,-80.3993115,342
Los Lotes de Buena Vista,9.2848633,-79.6918743,342
San Martin,8.4475463,-82.6441279,342
Alto Jaramillo,8.7685461,-82.4039554,342
Lajas Adentro,8.2505168,-81.8797407,342
Loma de Jagua,7.8296808,-80.2924672,342
Los Angeles,7.8890395,-80.3552667,342
La Bodega,8.3366745,-81.1094754,342
Barriada Nuevo Almirante,9.2985537,-82.4202049,341
Finca Sigua,8.424349,-82.9228774,341
El Rodeo,8.1101561,-80.6091326,341
Man Creek o Pumuna,8.9006524,-82.058622,341
Barcelo Playa Blanca,8.3530796,-80.1480538,340
Pueblo Grande 2,9.2825727,-79.6603377,340
Bajos de Iglesia o Rio Iglesia,8.4027138,-78.0112178,340
Piria,9.1203722,-78.3267749,340
Guayabito,8.8493705,-81.8164931,340
Los Pantanos,8.3716438,-80.2718247,339
Gobea,9.1678887,-80.2538169,339
Camaron Arriba,8.6410571,-82.66815,339
Membrillo Centro,8.5914353,-80.2165735,338
Lura Centro,8.7569427,-80.3653191,338
Tibite,9.3244235,-82.4576134,337
La Negrita,8.5724696,-80.3033395,337
Chiman,8.7159597,-78.6333451,337
Cerro Gato 2,8.482383,-82.0613325,337
Chorchita Arriba,8.4962672,-82.162413,337
Sardina o Lajero Abajo,8.2756978,-81.767868,337
Cermeno,8.4927724,-80.4490703,336
Nuevo San Jose,9.3040944,-79.6265558,336
Campo Alegre,8.7802316,-82.8362345,336
Baitun Arriba,8.6604133,-82.7704417,336
Caimitillo Centro,9.1634833,-79.5466003,336
La Pita,8.1390497,-80.9618524,336
Cilico Creek,9.059458,-82.3027779,336
Pueblo Viejo,9.191769,-80.1841747,335
Chupa o La Meseta,7.8005113,-80.5705426,335
Raton,8.5348959,-81.8235977,335
Las Cuestas de Marica,8.6049902,-80.3403829,334
Corozal,7.7563043,-80.4717599,334
Alto Caballero,8.2941638,-81.6767458,334
Mali,8.8495269,-82.1862562,333
Garrote o Puerto Lindo,9.6051185,-79.5861194,332
Puerto de Santa Fe,8.6356351,-78.1680132,332
Las Praderas de San Lorenzo,9.1406954,-79.5346642,332
Arritupu o Isla Iguana,9.5011441,-79.0265743,332
Ola,8.2709464,-81.7438701,332
Barro Blanco,8.4647333,-82.7802497,331
Baitun Abajo,8.6431274,-82.7907284,331
Barriada 2000,8.4840714,-82.0822414,331
Lajamina,7.5903794,-80.1324813,330
La Honda,8.3251618,-81.0281782,330
Guayacan,9.0884297,-82.4873665,329
Tolote u Oriente del Risco,9.197418,-82.4279138,329
Tiger Hill,9.5728713,-82.7821621,329
Playa Chuzo,8.9240706,-78.3395418,329
Rodeo Viejo,8.5313786,-79.9511626,329
El Espino,8.5333335,-80.5296331,328
Salitral,8.670686,-82.7464679,328
Vista Alegre,8.800224,-80.0110312,328
Llano Grande,8.0806804,-81.1374971,328
Charagre,9.3932361,-82.5654973,327
Pajonal Centro,8.5933278,-80.2560801,327
Rio Rita Arriba,9.3220772,-79.7901959,327
Tierra Prometida,9.1544735,-79.2065971,327
Cerro Banco,8.361848,-81.7743442,327
Chepo,7.7286043,-80.8222948,326
Boro,8.1738195,-81.3011098,326
Los Lajones,8.4393366,-81.2407295,325
Tebujo Abajo,8.3886041,-81.7136461,325
Las Guias de Occidente o El Espino,8.3996027,-80.0920503,324
Cerro Colorado,8.5548971,-80.5017146,324
Finca Higueron,8.4051153,-82.8885072,324
El Tecal,9.4373409,-82.5572882,323
Membrillar,8.2014713,-80.6264382,323
Varital,8.4950836,-82.5839113,323
Bajos de Chiriqui,8.730836,-82.8527609,323
Sacramento,8.9945561,-79.7217334,323
Barriada Santa Eduviges,9.1511611,-79.1626142,323
Las Guias Arriba,8.2480814,-80.7690277,323
Boca de Quebrada Remedios,8.5721609,-82.0407161,323
Barriada Cuarto Centenario,8.5122786,-80.3383072,322
Barriada 20 de Diciembre,9.2234849,-78.8905323,322
Cerro Balsa o Jädeberi,8.3711331,-81.795703,322
Cirbulaco,7.8532084,-80.9880203,321
San Pedro del Rincon,8.0863574,-81.0858762,321
Punolocita,8.5168706,-77.9790878,320
Nurra,9.0111452,-78.0550724,320
Bella Florida,8.5093835,-80.1998157,319
Las Canas,8.5615539,-82.4473756,319
Los Carates,8.0107425,-80.7864435,319
El Hatillo,7.9111068,-80.6359967,319
Arenosa,9.0478145,-79.9426411,319
Las Margaritas,8.5622188,-80.0708671,319
Cerro Cana,8.3526699,-81.6215207,319
El Nanzal,8.5291905,-80.2923473,318
Bongo Civil,8.4071615,-82.9018158,318
Aguacate,8.6304711,-82.5464751,318
Canas,7.4471608,-80.2634031,318
Charco La Pava 2,9.2272647,-82.4991782,317
Calabazal,8.344961,-81.8439658,317
Churube Arriba,8.4145182,-80.5658261,316
San Jose,7.7906588,-80.6804813,316
El Cocuyo,7.860179,-80.6129192,316
Santa Rosa No.2,8.8662526,-80.1091355,316
Wacuco,8.9648695,-78.465402,316
Jorones,8.0465265,-81.5647493,316
Tranquilla,8.4989936,-80.2281109,315
Limones,8.099376,-82.8736026,315
Platanillo,8.8276707,-78.3833866,314
El Limon,8.4864652,-80.1001319,313
Pagua,8.6421137,-80.4689711,313
Santa Ana Abajo,7.9448863,-80.375715,313
Guayaquil,8.1070513,-80.9235615,313
Vista Alegre,8.1209877,-77.6159806,313
Palma Gira,8.2839014,-81.7351146,313
Isla de Canas,7.4135666,-80.3145987,312
La Laguna,9.0435635,-79.8387971,312
Utira,7.9768689,-81.2165202,312
Buena Vista,8.5138022,-82.4960633,311
El Cristo,7.8866656,-80.3796449,311
Cemaco o Wounam,8.14918,-78.225716,310
Puerto Limon o Narasgandi,8.9946759,-78.2283054,310
El Potrero,7.8885004,-80.7772364,309
Corozal,8.2010832,-77.5963747,309
La Guaira,9.6244296,-79.5594474,308
La Concepcion,8.1278494,-80.8581823,308
Rio Grande o Pajonal,8.6141312,-81.3055877,307
Tierra Oscura,9.1896295,-82.2670403,306
Panagro,8.9493838,-82.1220147,306
Quebrada Bonita,9.2850506,-79.7165819,305
Cana Brava,9.0763633,-80.0548876,305
Las Cruces,9.0405334,-80.1450352,305
Los Pavitos,8.4702074,-77.9495483,305
Llano Abajo,7.7898346,-80.4118108,304
Playon Grande o Ukupa,9.3550242,-78.3320603,304
Boca de Balsa,8.5299502,-82.0313163,304
Ventorrillo,8.6204885,-80.5886631,303
Pedregalito,8.470727,-82.5944387,303
Calvario,8.5541618,-82.6168607,303
Los Higos,8.010512,-80.6615277,303
Hato Corotu,8.3351635,-81.9702973,303
Isla Grande,9.6319317,-79.5634474,302
La Union,8.8482252,-82.8596397,302
Los Planes,8.6918256,-82.8666407,302
Las Pavas,9.0966824,-79.8868331,302
Rio Guazaro,8.8064022,-81.0829612,302
Centro Daira,8.8973153,-82.0239816,302
Punta Uva o Guacamaya,9.1658329,-81.8702368,302
Canaveral,8.8496293,-81.702176,302
Guasimo,8.3671229,-82.5737756,301
Bajo Grande,8.8562599,-82.5516787,301
Quebrada Negra Arriba,8.5082596,-82.743219,301
Los Llanos,7.9309466,-80.8762024,301
Calante,8.8191165,-81.9065839,301
Cerro Colorado,8.5165013,-82.5379932,300
El Rincon,8.1863195,-81.4298882,300
Alto Cana,8.5118633,-82.1361398,300
Los Reyes,8.5662122,-80.2008657,299
Malganao,8.7886228,-80.0676168,299
Canglon,8.3456474,-77.8329213,298
Miraflores,9.3065362,-82.4380641,297
Bella Vista,8.2112405,-81.6226125,297
Gangandi,9.4390312,-79.1152678,297
Playa Roja,9.0544897,-81.760507,297
Ojo de Agua,8.5929283,-80.6359384,296
San Pedro de La Horqueta,8.1273139,-81.0949832,296
Juay o Las Mareas,8.2876813,-81.9472728,295
Las Huacas o Altos de las Huacas,8.3640719,-82.1206971,295
Punuloso,8.5285261,-77.988392,295
Mata Redonda,8.1617137,-81.4375072,295
Salamanca,8.1088494,-80.7421933,294
Mariabe,7.5833118,-80.0644816,294
El Llano,9.2166471,-78.9591098,294
Barriada La Paz,9.0618037,-79.5598979,294
Bocle,8.4130827,-81.3084292,294
El Jagüito,8.415937,-80.3110383,293
Barriada 2000 Rural,8.9788361,-79.6837087,293
Los Ruices,8.2091799,-81.473124,293
Piedra Candela,8.4892934,-77.9674016,292
Menchaca,7.864231,-80.7577136,292
El Gavilan,8.1867379,-81.1317015,292
Tierra Hueca,8.1888679,-80.8740563,292
Cabecera de Quebrada Guabo,8.3413128,-81.8148174,292
Segunda Corriente,8.7776467,-81.3936883,292
Chorrerita,8.5765861,-80.2138372,291
La Horqueta,8.8242555,-82.460649,291
La Gallinaza,7.7419958,-80.2840322,291
Irgandi,9.3343002,-78.3056419,291
Cerro Otoe,8.4481325,-81.8755151,291
Dobori,8.8046812,-81.7283491,291
Boca de Drago,9.4124792,-82.3087161,290
La Colorada,8.4908459,-80.298681,290
Juan Gallego,9.6122502,-79.5640736,290
La Estancia,8.9527833,-79.7039619,290
Quebrada Hacha o Uribito,8.5362071,-81.7751996,290
Punta Nispero,9.0684554,-81.808583,290
Lagartera,9.1157591,-79.9146829,289
Alto Playona,8.5387719,-77.8824088,289
Llano Nopo,8.4230915,-81.6186217,289
Piedra Grande,8.5235614,-81.4590973,289
El Nancito,8.2407243,-81.7342041,288
Rio Guisado,8.8268097,-82.8021778,288
El Guanche,9.5044881,-79.6775965,287
Finca Lechoza,8.3764492,-82.833554,287
Llano Grande,8.3436808,-82.056587,287
San Soledad,8.7244096,-81.3148276,287
Barriada Las Brisas,9.5494431,-82.7426617,286
Santa Fe Arriba,9.1005573,-80.0763228,286
Salud,9.2065804,-80.1322648,286
Barriada Emau Hill,8.9991261,-79.7215001,286
Tres Hermanas,8.909958,-80.1203288,286
Potrero de Cana,8.292962,-81.6975994,286
Solarte,9.3143803,-82.1947804,285
Buena Vista,8.4049762,-80.4363767,285
Bijagual No.2,8.5495712,-82.6984871,285
Los Chorros o Los Chorritos,8.946994,-80.0696744,285
Las Claras Arriba,8.8077044,-80.1456237,285
El Jobo,8.6186103,-80.5364436,284
Martillada,8.6595011,-80.2699935,284
San Luis,7.8593287,-80.5183983,284
Akuayala o Puente Bayano,9.1703245,-78.7980643,284
Quebrada  Otoe,8.337168,-81.8961505,284
Palo Verde,8.4267507,-80.1029403,283
Finca Aguacate,8.4115668,-82.8898071,283
Santa Lucia o Loma del Viento o Finca Santa Lucia,8.2311297,-81.8242886,283
El Pajaro,7.9480401,-80.5733281,283
Nueva Arenosa,8.8807951,-79.9958467,283
Pintupu o Igualalla,9.2234728,-78.7221325,283
Torti Abajo,8.9417113,-78.3910223,283
Quebrada Tula,8.837964,-81.9976718,283
Bajo Colubre,9.0979543,-82.5267534,282
Quebrada Grande,9.2854405,-79.732087,282
Bajo El Piro,9.1617821,-79.2854138,282
El Espino,8.4811698,-80.0153067,282
Gatuncito,8.5378664,-80.9531221,282
Sinai,8.6157677,-77.8293784,282
Loma Azul,9.1572451,-82.3342552,281
Finca Malagueto,8.3498075,-82.8206708,281
San Pablo Nuevo Arriba,8.4157818,-82.5164542,281
Flor de Laguna,9.2189048,-78.8609603,281
Ipeti Colono,8.9768835,-78.5022726,281
Odobate,8.8372812,-81.8721262,281
Santa Marta,7.7577965,-80.299008,280
La Laguna,7.6285778,-80.1182879,280
Vueltas Largas,8.4479922,-81.059234,280
La Guinea,8.5005439,-82.5886923,279
El Pedregoso,7.6933311,-80.3268696,279
El Barrero,8.0056886,-81.2804209,279
Mandi Yala,9.4320487,-79.1439662,279
Pena Blanca,8.0705916,-81.5980969,278
Llano Bonito,8.1657645,-80.642334,277
Quebrada Grande,8.4875169,-80.2100582,277
Cana Blanca,8.4076178,-82.5014307,277
Lechuza,8.4255097,-81.758957,277
Quebrada Negra,8.6719964,-81.7490854,277
Nuevo Farallon,8.3826797,-80.1345995,276
El Salado,8.509196,-80.2717882,276
Tucue,8.7092774,-80.3186519,276
Cerro Caballo,8.2565171,-81.5520909,276
Nicanor,8.5528606,-78.0350072,276
Syrain o Punta Syrain,9.1475742,-81.9229473,276
Coco Solo,9.4441812,-79.7473961,275
Los Limones,8.4159327,-82.6704532,275
Manene,7.8715069,-77.8542323,275
Cerro Azul,8.075682,-80.9020885,275
Los Balsas,8.0635174,-81.0897125,275
San Miguel,8.5448736,-82.7502094,274
Bella  Vista,8.6040591,-82.2285059,274
Santa Cruz,8.6489358,-82.7582871,274
Puerto Limon,8.0058574,-80.4897633,274
Las Zangüengas,8.9592579,-79.8712861,274
Calabazo,8.1360388,-81.5985732,274
Llano Bonito 2,8.4134549,-80.0961562,273
El Calabazo,8.5930696,-80.6233518,273
Los Arenales,8.5008599,-82.8210195,273
El Harino,8.5709952,-80.1744993,272
Esquiguita,7.8435142,-80.6387212,272
Tinajones Arriba,8.9999801,-79.8972928,272
Llano Iglesia,8.455308,-82.002397,272
El Silencio,8.5198335,-80.4065992,271
Bajo Lino,8.7945168,-82.4411556,271
Chorcha Abajo,8.3666938,-82.2785606,271
Sabana Grande Arriba,7.8293149,-80.364361,271
Santa Ana Abajo,8.7884865,-80.2840929,270
Alto Nancito,8.3701955,-81.8542284,270
El Potrero,8.5657488,-80.3229129,269
El Espave,7.8217085,-80.2943643,269
Las Canas,9.0198293,-82.282738,268
Seteganti,8.2934782,-78.0891438,268
Agua Salud o Los Pozos de Agua Termales,9.505771,-82.7993418,267
El Tejar,8.4336301,-82.5729807,267
Cabecera de Cochea,8.7234101,-82.4995027,267
Los Bajos del Cuscu,7.8676896,-80.8023584,267
La Subidita,8.2052161,-81.0628405,267
Paredon Abajo,8.4592045,-81.189738,267
Cimarron,8.535274,-82.7264233,266
Divisa,8.1262906,-80.6894877,266
Gorbiski,9.5480574,-78.9640564,266
Valle de San Miguel,8.7887602,-80.318755,265
Quebrada Lajas,8.4652131,-82.2332573,265
Nueva Delhi,8.7102768,-82.8624349,265
Bajo del Rio,8.6379152,-79.9564117,265
Loma Bonita,9.0191281,-78.5627778,265
Carti Yantupu o Isla Puerco de Monte,9.4746982,-78.9624986,265
Cabuya,8.4356135,-81.8990857,265
Cerro Grande,8.3921504,-81.5614659,265
La Hincada,8.4330506,-80.2598178,264
Renacimiento de U,8.7500196,-80.148493,264
Garicin,8.4332547,-80.4596103,264
El Limon,9.2558952,-79.8128537,264
La Estrella,8.0817851,-80.9952977,264
Cerro Maiz,8.2846804,-81.580067,264
Los Canones,8.9352636,-80.0513472,263
Miramar o Cerro Humo,8.71934,-78.6328249,263
Los Ruices,8.1789399,-81.284582,263
Agua Fria,8.6666281,-80.4725501,262
Barriada Santa Elena,7.7599037,-80.2799417,262
Curti,9.0004655,-78.5451474,262
Otoque Oriente,8.6024661,-79.5949563,262
Canaveral,8.334145,-81.0588383,262
Buenos Aires,8.2781301,-81.6638143,262
San Lucas,9.0061563,-80.5661073,261
Barriada Don Pinto,8.5131448,-82.8298964,261
El Cacao,7.4498832,-80.4031314,261
El Limon,8.3370495,-81.1432265,261
Mata Gorda,8.474464,-82.5672104,260
La Candelaria,7.9329123,-80.6591625,260
Cabecera de Cerro Puerco,8.3097249,-81.7550861,260
Cayo Paloma o Pigeon Cay,9.1347075,-81.8405214,260
San Pedrito Abajo,8.8007906,-81.5049683,260
Chumical,8.5350262,-80.2511549,259
Pueblo Nuevo,8.5507914,-80.1970203,259
El Limon,8.6129578,-80.3783966,259
Barriada Nueva Esperanza,7.7906929,-80.2557803,259
La Honda Abajo,8.90784,-80.0294634,259
El Limon,8.2863247,-80.532867,258
Cerro Brisas,8.3205121,-81.936229,258
La Estrella,8.7437574,-82.3882329,257
Bijagual,8.5148599,-82.3336074,257
Mata Rica,8.446586,-82.2617037,257
Rincon Grande,8.007622,-80.8331513,257
Guagara,8.9210905,-78.3673909,257
Pueblo Mesa,8.8579811,-82.1176925,257
Campeon,9.3281349,-79.8061837,256
Santa Isabel,9.5392223,-79.1957004,256
Biroquera,7.5350259,-78.1043557,256
Las Torres,8.9791147,-79.7047347,256
Palo Diferente,8.4605584,-80.0250014,256
Loma de Palogavia,8.4666866,-80.0622747,256
Chorrerita No.1,8.5628454,-80.2253781,255
Petaquilla Nueva Lucha,8.887735,-80.7271959,255
Mechi,9.4864583,-79.7099501,255
Chepigana,8.2847357,-78.0426284,255
Sabana Grande Abajo,7.8444863,-80.3485655,255
Chepillo,8.953957,-79.1285658,255
Trapichito,8.8987291,-79.7925682,255
Chichibali,8.5654185,-80.1024319,255
Cerro Gordo,8.0302605,-81.1857038,255
El Valle del Giral,9.2456103,-79.6986199,254
Palmira,9.5458602,-79.2159288,254
Bongo Abajo,8.574755,-82.6174317,254
Tamarindo,8.7010057,-78.2448683,254
Rio Hondo,8.8525714,-78.7391793,254
Chorrillito,8.3845027,-80.9876162,254
El Penon,8.356333,-80.9767915,254
Samboa,8.8193546,-82.0091901,254
Mutari o Mutarigote,8.7546491,-81.7845709,254
Santa Marta,9.0569188,-82.3142351,254
Toza,8.3453347,-80.6420778,253
La Pita,8.4395458,-82.5906203,253
Cerro Viejo,8.2565315,-81.5754136,253
Contadora,8.6270042,-79.0374942,253
Chichebre,9.1589594,-79.1587117,253
El Cope,8.5046368,-80.0547057,253
La Laguna,8.6060714,-80.0470883,253
Palo Verde,8.2549581,-81.1837441,253
Alto Galera,8.5126661,-81.4969306,253
Loma Alta,8.9442139,-79.7695979,252
San Cristobal,8.0200722,-81.0638978,252
Bahia Grande,9.0250313,-81.8206023,252
Finca Corozo,8.4130849,-82.9252797,251
Pedro Gonzalez,8.413435,-79.1027909,251
La Montanuela,8.0277876,-80.8621702,251
Los Angeles,8.5215301,-82.2010098,250
Buenos Aires,8.5282079,-77.9532986,250
Loma Larga,7.8913444,-80.3349467,250
Ciri de los Sotos,8.9756761,-80.092591,250
Barrera,8.7882032,-80.9593249,250
Isla Pino,9.0066046,-77.7627493,250
Poman Quare,8.8653713,-81.8564102,250
El Limon,8.4786176,-80.237182,249
Las Tablas,8.5917301,-80.5438547,249
Nubadup o Isla Cuba,8.9185344,-77.7198362,249
Duima,8.3206286,-81.7982765,249
Rio Viento Arriba,8.8220855,-81.7753343,249
Las Trancas,8.462152,-80.0899341,248
Los Corralitos,8.3591281,-80.6055311,248
Nueva Pena Blanca,8.7554414,-80.0610262,248
Los Cerros,8.0802669,-80.907408,248
Sitio Prado,8.372477,-81.5781792,248
Nutivi Occidente,8.8658523,-81.8484403,248
Paso Real,8.7348386,-80.3166346,247
Samaria,8.4028705,-82.9111348,247
Santa Catalina,8.1400304,-81.2614222,247
La Cabana,9.3513637,-82.2557851,246
La Posta o Llano El Apostal,8.467498,-80.4865395,246
Los Molejones,9.0101659,-82.27142,245
Piedras Blancas,8.5803181,-80.5373814,245
Nazareth,8.2751934,-77.524089,245
Alto Camaron o Queberi,8.3645631,-81.9467597,245
Buena Vista,8.3728007,-81.6094543,245
Boca de Man Creek,8.9242908,-82.0589454,245
San Jose,8.5281517,-80.9683453,244
Falda de Pantena,8.41233,-81.9364462,244
Mayo,8.6292122,-81.6857127,244
La Union o La Union de Pina,9.2725015,-80.0273285,243
Tiguaricicua Chicula Chicula,9.1323136,-78.4127795,243
Cerro Pajal,8.2044619,-81.4199254,243
Alto Meregilda,8.2982918,-81.6402137,243
Agua Salud,8.5303029,-81.6533153,243
Finca Jobito,8.3789206,-82.8475575,242
Paraiso,8.6575206,-82.5870386,242
Bijagual No.1,8.5563264,-82.709732,242
Junco o San Juan,9.3655715,-82.5126096,241
La Coca,8.5628752,-80.1828824,241
Dudori,8.8653584,-81.9646647,241
Caracol,8.4254407,-81.800257,240
El Cortezo,7.4288755,-80.6306872,239
San Vicente de Bique,8.9267838,-79.685042,239
Jordanal,8.6867345,-80.1065621,239
Loma del Naranjo,9.1650826,-78.8887193,239
Brujas,8.5866946,-78.5305288,239
Cocuyal 2,8.201097,-81.4529394,239
Las Flores,7.3715658,-80.808252,239
Cerro Bolote,8.4787424,-82.0348173,239
El Chumico,8.404428,-81.5047368,239
Burote,8.8240497,-81.5965535,239
Quebrada Banano,9.3413798,-82.4556708,238
Palmira del Banco,8.7013423,-82.5411873,238
Villa Rosa,7.952032,-80.5585232,238
Cerro Redondo,8.2045652,-81.1985829,238
Torio,7.5510111,-80.9482173,238
El Cope,8.961907,-79.7212492,237
San Felix,8.8305672,-81.9399949,237
Bito,8.7699084,-80.2675963,236
Alto Guayabo o Miyaridi,8.3081559,-81.5310091,236
La Moneda,8.5849757,-78.0578197,236
Quintin,8.2320958,-78.0782904,236
Punta del Mono,8.0594702,-80.9378342,236
Quebrada Palmar,8.7624501,-81.0116871,236
El Pito,7.7948582,-81.22378,236
Cenipita,8.325392,-81.7567956,236
Las Tivias,8.6216729,-80.5671289,235
Nuestro Amo,8.4490276,-80.5944304,235
El Corocito,8.2952207,-81.8667534,235
Lajas de Tole,8.1697122,-81.6988579,235
Bajo Grande,8.87645,-79.8965526,235
Sineti,8.647493,-81.6495888,235
El Estero de San Jose,8.2206022,-80.6128341,234
Paraiso,7.6849927,-80.1601522,234
Tierra Blanca,8.4800039,-81.4769906,234
Filo Verde,9.0109254,-82.3344203,234
Pueblo Santo o Santos,8.9846118,-82.3686982,234
Valle Escondido o Bahia Escondida,9.275459,-82.2859198,233
Nueva Estrella,8.9415111,-82.1944892,233
Pantanal,8.8289381,-82.8614271,233
La Raya de Calobre,8.2165827,-80.8277785,233
Quirate,8.3027947,-81.8113469,233
La Pedregosa,8.605055,-80.3659724,232
Boqueron Abajo,9.3588597,-79.5660913,232
Finca Jocote,8.3741602,-82.8232333,232
El Hato,8.4438638,-80.0606759,232
Los Pintos,8.63057,-80.0873393,232
Llano de los Reyes o El Ciruelo Abajo,7.9015633,-80.6716378,231
Trinidad de los Cerros o El Cruce,8.7434029,-79.9802854,231
San Jose o Kosovo,8.8630234,-79.713873,231
Cabecera de Chorchita,8.5489856,-82.1660754,231
Playa Verde,9.1352308,-81.939776,231
Los  Perez,8.4824966,-80.221057,230
Brenon,8.6270311,-82.8188686,230
Las Huacas,7.948171,-80.8655252,230
Pueblo Nuevo,8.0757515,-80.7848098,230
Perales,7.779109,-80.3212549,230
El Hato La Estrella,8.1814816,-80.6748709,229
Palmira Arriba,8.7627054,-82.4564505,229
El Pedernal,8.029028,-80.6169794,229
El Zaino o Corozales Adentro,8.9327391,-79.9025155,229
Mata Palo,8.4820511,-79.9830172,229
Pueblo Nuevo 1,8.0959006,-80.8834152,229
Alto Rey,8.3355408,-81.9557208,229
El Bale,8.3448373,-81.3730237,229
Guzman,8.5206161,-80.5833766,228
Balita,8.5360615,-82.4518126,228
Rio Piedra,8.4136578,-81.2831142,228
La Valdesita,8.0568354,-81.0353954,228
Pueblo Nuevo,7.9980331,-81.3125702,228
Calidonia,7.9575623,-81.3863286,228
Guary,8.3140988,-81.8100568,228
El Valle,8.8086012,-82.1717255,228
Big Creek,9.361981,-82.2452129,227
Paya,7.9057616,-77.4033038,227
Corozales  Afuera,8.9095451,-79.8729166,227
El Peru,8.3230226,-81.4278058,227
San Juan de Dios,8.3361001,-81.3013455,227
Cabecera de Pita,8.3353453,-81.6997941,227
Rio Bueno,8.7106847,-81.7955641,227
Monte Virgen o Bocola,9.0254987,-81.8034611,227
El Cocal,8.5884385,-80.291196,226
La Honda,7.9063091,-80.3546244,226
Los Hules Centro,9.0453901,-79.9107691,226
El Picacho,8.6308235,-80.0417386,226
El Tigre,7.9578782,-80.9396095,226
Virigüa Centro,8.479072,-81.3738697,226
Loma Partida,9.1529089,-82.1713636,225
Cumbirilla,8.4324119,-80.5853844,225
Quebrada Candela,8.3013908,-81.7812256,225
Las Acequias,8.6028121,-82.4375959,224
Escodu,8.2478811,-81.827546,224
Bayano,7.6380626,-80.3854429,224
El Tigre de los Amarillos,7.7033434,-81.252632,224
Tolay,8.3409679,-81.9315525,224
Chiguiri Abajo,8.707962,-80.2558224,223
Sabanita Verde,8.9046302,-80.4412201,223
Pigandicito,8.9624548,-78.1649361,223
Hato Jobo,8.408962,-81.8930967,223
Mununi,8.8005793,-81.7960976,223
Platanal,9.1101916,-80.4713554,222
Proyecto Caoba,8.3982662,-82.8713366,222
La Garita,8.8674462,-82.6006059,222
El Ciruelito,8.0290244,-80.9328161,222
El Poste,8.2985917,-81.1661078,222
Caloveborita,8.6646978,-81.1773573,222
Quebrada Caracol,8.2941037,-81.8183431,222
Mango,8.807906,-81.5439002,222
Tranquilla Norte,8.5212275,-80.2127077,221
El Roblito,8.2845741,-80.592788,221
Palo Grande o Sabana Bonita,8.3481247,-82.6014705,221
La Nicora,9.1860763,-78.8845342,221
Los Montes,8.0010981,-81.1438941,221
Los Algarrobos,8.0200631,-81.3333486,221
Cerro Conejito,8.3988479,-81.6720132,221
Quebrada Pinzon,9.1482183,-82.3610427,220
Guayabal,8.6219894,-82.578853,220
El Guabino,8.1685372,-81.6645605,220
Alto del Cristo,8.6119196,-78.0848828,220
San Jose de Loma Bonita,8.9683922,-78.5841873,220
Laja Morada o Lajita Morada,8.4321788,-81.2704229,220
Altos de Madre Vieja,7.6741539,-81.3343304,220
Tortuga,8.5536279,-77.7242509,220
Quebrada Macho,8.3030538,-81.7439576,220
Quebrada Pita,8.3292628,-81.7441607,220
Quebrada Pavon,8.3149225,-81.7829049,220
Cano Sucio 1,8.8442016,-82.0112711,220
San Ramon o Bajo Mono,8.8273685,-82.4739778,219
El Nanzal,7.745226,-80.7258394,219
Calle Larga,8.4680423,-80.0053652,219
El Puente,8.1010489,-77.5966182,219
La Lomita,8.8665669,-82.1584338,219
Isla Popa 1,9.1904286,-82.1520782,218
Barriada Pueblo Nuevo,8.2262104,-80.617031,218
Rio Blanco,8.643142,-80.5937851,218
Aguas Limpias,8.0880242,-80.8811312,218
Cerro Flores,8.4625197,-81.7630014,218
San San Tigra,9.4356052,-82.6558968,217
La Honda,8.6461076,-80.4237929,217
Copal,8.7688728,-82.9018672,217
Botoncillo,7.7130416,-80.4267756,217
Bombachito,7.6425579,-80.5681349,217
Rio Diablo Aidirgandi,9.1793312,-78.5073836,217
Cianca,8.3734028,-81.8392277,217
Cacao,8.3422042,-81.7421579,217
Mompo o Bella Vista,8.0631299,-78.3625199,216
Sobiaquirua,7.8997471,-77.5284628,216
Los Mendozas,8.3768884,-81.0755591,216
Bahia Honda,7.7524441,-81.5170399,216
Quebrada Canela,9.4955647,-82.7066383,215
Alto de La Mesa,8.6357445,-80.1166212,215
Boca de La Encantada,8.876369,-80.3354106,215
Finca Palmito 1,8.4046253,-82.8625543,215
Boca Chica,8.2204254,-82.2184983,215
El Comun,8.207341,-81.682917,215
Rio Arenal,8.7830796,-78.3622903,215
El Hato,8.8083488,-78.7296227,215
San Miguel,8.0554691,-80.9358409,215
Bajo Grande o  El  Machin,8.3445076,-81.8801369,215
Buena Esperanza o Hope Well,9.1980361,-82.2357061,214
Boca de Tucue,8.7545999,-80.3320626,214
I.M.A. o El Mercadeo,8.1165247,-77.7262343,214
La Valdez,8.0588916,-81.0002744,214
Valle de las Minas,8.6642707,-82.2227562,213
Urbanizacion Mirador del Bosque,7.7968307,-80.2766435,213
Cienaga Larga,7.8381563,-80.3104353,213
Vaca de Monte Abajo,8.8078705,-79.8875139,213
Guacamaya,8.3939251,-82.0040828,213
Quebrada Nigua 1,9.2979139,-82.426979,212
Santa Ana,8.5687181,-80.4314262,212
Alto de los Lagos,8.3134988,-82.8749918,212
La  Arenita,7.8728586,-80.5646346,212
El Barrito,7.9603665,-80.9481922,212
Martincito,8.0679134,-80.9655107,212
Los Volcanes,8.2739834,-80.6430406,211
Cerro Morado,8.2417094,-80.5753201,211
Playa de Muerto,7.8863399,-78.3590684,211
Embera Puru,8.7576335,-78.1706665,211
La Concepcion,8.0618031,-80.6977399,211
Güera,7.4792037,-80.553753,211
La Playa de Mermejo,7.7824874,-81.1837624,211
Boca de Huso,8.5107328,-82.0539695,211
Nance Risco,9.2602744,-82.4694965,210
El Jagüito,8.6480428,-80.408396,210
Barriada Nuevo Horizonte,9.2181926,-78.8904332,210
Llano Colorado,8.1980748,-80.7852956,210
Guacamaya,8.4881453,-81.3441039,210
Los Diaz,7.9751728,-81.1679056,210
Ciruelar Arriba,8.3584695,-81.0687473,210
Capellania,8.1253847,-80.8147535,210
La Peana,8.1465303,-80.9241065,210
Salmonete,7.7774592,-81.509068,210
Aidirgandi o Piedra de Amolar,9.364958,-78.3767036,210
Villa Caleta,8.4473162,-77.7249687,210
Junta Many o Miri,8.5426034,-82.1390492,210
Quebrada Platano,9.1337864,-82.3728577,209
Altos del Coco,8.7828131,-80.2419886,209
Diego,9.1431756,-80.3980965,209
Calabazal,7.9872458,-80.7131257,209
Bajada de Campana,8.708605,-79.8735131,209
Quebrada Chico o El Peligro,9.031534,-79.8595407,209
Buena Vista,8.4120617,-81.3328793,209
Cerro Venado,8.2292173,-81.5737505,209
Alto de Chiriqui Viejo,8.587356,-82.7806992,208
Ciricito Arriba,8.8052067,-80.0776605,208
El Zapote,7.7504903,-81.5163423,208
Bajo Chiquito,8.4569801,-77.6786996,208
Hato Rincon,8.4823008,-81.7927753,208
El Papayal,8.4718021,-81.2268793,208
San Jose,8.5846709,-80.1877863,207
Coquillo Centro,8.9178473,-80.1828988,207
Santa Rosa,8.6028159,-82.6832157,207
Las Yayas Afuera,8.9276128,-79.8526928,207
El Mamey,8.0154012,-81.3189032,207
Paredon Arriba,8.460032,-81.1986888,207
La Soledad,9.2445601,-82.4632803,206
Higo Mocho o Nueva Florida,8.2633027,-81.8721243,206
Las Paredes,8.0360405,-80.848934,206
Urbanizacion Azuero o Barriada Revolucion,7.8780897,-80.5402531,206
La Trinidad,8.182563,-81.5107249,206
Vista Hermosa,8.2200367,-80.6991166,205
Quebrada Amarilla,8.6314592,-80.1406925,205
Chiguiri Centro,8.6952122,-80.2260773,205
Pajonal Arriba,8.604965,-80.2384095,205
Rio Quema,7.5121584,-80.5586011,205
Rio Indio de los Chorros,8.7675579,-80.1285376,205
El Maranon,8.0361465,-81.2148682,205
San Juanito,7.8822362,-81.3094422,205
Cerro Miel,8.526515,-82.0944012,205
Cerro Pifa,8.313517,-81.6477862,205
El Valle de Quebrada Ancha,9.278921,-79.743542,204
El Llano,8.2536964,-81.5852998,204
La Villa,8.6497783,-78.1625097,204
El Hato,7.7950935,-80.3847146,204
Boca de Macho,8.322911,-81.963531,204
Llano Grande,7.9743475,-80.7098531,203
Lagartillo,7.8798412,-80.3197731,203
Agua de Salud,8.5029029,-81.4614793,203
Isla Popa 2,9.2153176,-82.1441112,202
Altos de La Cruz,9.4747347,-79.7217984,202
El Limon,8.6990961,-79.8980053,202
Garnaderita,8.0468011,-80.9436553,202
Cerro Majagua,8.4038088,-81.8518822,202
Cochigro,9.3149567,-82.5678651,201
Milla 10,9.3805436,-82.4688134,201
Llano Grande,8.5661935,-80.1541452,201
El Jobito,8.4580558,-80.098767,201
El Palmar Arriba,8.6705048,-80.3973255,201
Arreti,8.5447103,-78.0793052,201
El Piro o San Martin de Porres,8.2085272,-81.5321484,201
Alto Balsa,8.5364427,-81.5211467,201
Bonilla,8.6132962,-82.5377229,200
Nuevo Bijao,8.263255,-77.7944734,200
Cative o Nanzal,7.9173815,-81.3793095,200
Los Polancos,7.9365957,-81.2981883,200
Potrellano,8.5829939,-80.5149446,199
Loma Bonita,8.6002806,-80.6033286,199
Rio Caimito o Caimito,9.0094626,-80.6808678,199
Bella Vista,8.0478706,-82.8833312,199
La Bonga Abajo,8.8690115,-80.0396411,199
El Copecito,8.511647,-80.0358565,199
Old Best o Playa Old Best,9.0640582,-81.7789467,199
Alto Riecito,8.8807408,-80.2513975,198
El Cano de San Miguel,8.7319806,-80.2759625,198
Las Negritas,8.8014372,-80.0488359,198
La Montana de Boro 2,8.1491241,-81.2867041,198
Villa Nueva,8.2172393,-77.5597271,198
La Chunga,8.0608684,-78.2084085,198
Cerro Tula,8.3958236,-81.7912035,198
Pueblo Nuevo No.1,9.1112298,-81.8456634,198
Llano Grande,8.4429559,-80.2316274,197
La Venta,8.634699,-80.4154709,197
La Trinidad,8.5997703,-80.6149911,197
Barrio Unido,8.7338767,-80.1239963,197
San Pedro Arriba,8.7183415,-80.2102012,197
La Encantadita,9.0570516,-80.1203918,197
El Coco,8.4111899,-82.9482184,197
La Pita,8.8813708,-80.0056624,197
Cerro Plata,8.28708,-81.3624331,197
Sieyik,9.3846661,-82.6516691,196
Punta Pena,9.1924219,-82.4042237,196
El Vallecito,8.7806041,-80.1495168,196
Barriales,8.5941384,-78.3831595,196
Vallerriquito,7.6204663,-80.321919,196
Capuri,7.7913901,-80.4614902,196
Barriada 11 de Octubre o El Guabo,7.7188315,-80.5560144,196
Baso Miel 2,8.5049562,-82.0767428,196
Aji,8.4017117,-81.9340089,196
Chichica,8.3506335,-81.8941312,196
Las Lajitas,8.4261475,-80.6458232,195
Perecabe,8.654206,-80.3846527,195
Tulu Arriba,8.7448526,-80.4001209,195
La Primavera,7.7737491,-80.2637877,195
La Concepcion,8.2813678,-81.3178319,195
Gatu,8.5318451,-80.9600245,195
Secretaria,9.2021872,-82.2069608,194
Llano Grande,8.4541018,-80.2300943,194
Nisperal,8.590636,-80.1685135,194
La Arena,7.7520972,-80.5929254,194
Teria,8.8059576,-80.1042437,194
Unicito,9.2394981,-79.0135131,194
Sardina,8.3759464,-81.7853551,194
Maturganti  o Matuganti,7.8144267,-77.5164836,193
Montero,7.7964092,-80.2900854,193
Costa Esmeralda,8.5051268,-79.9325027,193
San Juan,8.3025974,-81.0129155,193
El Nance,8.1525286,-81.0838055,193
Pellejo de Agua,8.538028,-82.0137187,193
El Bajito de San Miguel,8.7638712,-80.3037446,192
Aguas Claras,9.2955091,-79.7768739,192
Volante,8.5829406,-82.6621882,192
Guarumal,7.8403928,-80.7735035,192
Bajo Corral,7.6060446,-80.2547214,192
Las Guabas,7.8146858,-80.5015459,192
Canazas,8.836932,-79.9642842,192
Alto Ortiga,8.6083079,-81.2111331,192
Llano Culantro,8.4711125,-81.8570673,192
Bajo Cedro Arriba,9.0968283,-82.3042656,192
Jujucal,8.631804,-80.5359964,191
Aguila Abajo,8.6018915,-80.2154294,191
Llano Grande,7.9328839,-80.8023928,191
Santa Isabel,7.7651348,-80.3564495,191
Rio Indio Nacimiento,8.6525702,-80.1098262,191
El Poro Poro,8.5303555,-79.9325246,191
Escobal,8.4076185,-82.0003689,191
Sodi,9.3572031,-82.5645136,190
Gualaquita o Nutivi,8.9645126,-82.20202,190
El Cope,8.4393423,-80.6802503,190
Mosquitero,8.5792109,-80.3082421,190
El Espinal,7.8672854,-80.3227873,190
Pena Roda,7.7452807,-80.2630319,190
El Nancecillo,7.8224147,-80.4874489,190
Corona o Playa Corona,8.4415874,-80.0082385,190
Tebario,7.7194966,-80.9747515,190
Alto Cienega,8.4506863,-81.6380405,190
Cerro Nance,8.3949682,-81.5824577,190
Finca Higuito,8.3491766,-82.884514,189
Cochea,8.596707,-82.4194947,189
Llano Largo,8.031361,-80.7733358,189
Espavecito,8.562236,-79.9567678,189
Naca,9.0547997,-78.2098408,189
Raizal,8.1019904,-81.6101668,189
Corozal,8.0770966,-81.4358076,189
Barriada Alto de La Cruz No.1,8.1058757,-80.9925212,189
Palo Seco,7.5913214,-80.9756616,189
Mamitupu,9.5481772,-78.9671925,189
Quebrada Buenaventura,8.8991449,-82.0654751,189
Los Machos,8.5631948,-80.6971599,188
Nueva America,9.0771844,-80.0509342,188
Maria Soto,9.5254272,-79.680955,188
Juan  Vaca o Las Delicias,8.2379562,-81.8841162,188
Pitaloza Arriba,7.640733,-80.6670215,188
Rincon Santo,7.968102,-80.8589718,188
Llano de La Cruz,7.9575775,-80.6408397,188
Las Zatras,7.8220847,-80.3857702,188
La Bonga Arriba o Los Negros,8.8348661,-80.036301,188
El Guasimo,8.4653808,-80.7745421,188
La Culaca,8.5175031,-81.0505768,188
Sabana de Huso,8.5741793,-82.059081,188
Llano Palma,8.4043569,-81.6501813,188
Valle de las Perlas,9.246391,-82.3861876,187
Buena Vista,8.6353166,-80.5887544,187
Cartagenita,9.2593655,-79.8118988,187
El Balso,8.2153332,-80.7636906,187
Chumical,7.7984177,-81.2820578,187
El Guabal,8.8551004,-82.0421802,187
Boca de Toabre,8.942755,-80.5333489,186
Boqueron Viejo,8.5231475,-82.5862701,186
San Antonio Arriba o Chiquero,8.7999263,-82.7651726,186
La Colonia del Valle de Bijagual,8.0001663,-78.2220709,186
Los Uveros,8.9465611,-80.1357304,186
El Harino,8.7903231,-80.1298686,186
Ciricito Abajo,8.8193884,-80.0683299,186
Pueblo Nuevo,9.1707017,-79.2625304,186
Las Filipinas,8.5071662,-81.5113011,186
Cienaga Larga,8.3114529,-80.6247948,185
La Montanuela,8.4966603,-82.4721033,185
Los Corralillos,7.8669446,-80.691014,185
La Mata del Espino,8.2014221,-80.9378033,185
Notente,8.8324739,-81.9008352,185
Boca del Rio Guariviara,8.9355353,-81.9752146,185
Rio Viento,8.856666,-81.7497142,185
Romulo,9.4134917,-82.6220134,184
Sinostre,9.5946198,-82.8020465,184
Buenaventura,8.3406539,-80.1751648,184
San Jose,8.6346754,-80.3406411,184
La Boca del Guasimo,9.058293,-80.3323327,184
Santa Lucia,8.7606888,-82.4462609,184
La Candelaria,7.7323192,-80.1414007,184
Bernardino Arriba,8.9872465,-79.7542816,184
Torin,9.0140434,-79.0235681,184
Cabecera del Rio Pava,8.9965262,-78.7748535,184
Lagartero,7.665834,-81.2091488,184
Punta Grande,8.2716621,-77.6168585,184
Cerro Viejo,8.4831788,-82.1294003,184
Cerro Gallina,8.3740436,-81.8906371,184
Rio Tori o Toro,8.9589635,-81.8682905,184
Buena Vista,9.0951293,-81.8822807,184
Loma Estrella,9.1714842,-82.3128655,183
Ceiba,9.0062964,-82.4611296,183
Chorchita,8.4049026,-82.2314261,183
Villa Lourdes,8.7849114,-82.8158402,183
Quebrada El Ciprian,7.6981803,-80.7648829,183
El Libano,8.6160114,-79.8332168,183
Carrizal,7.7265962,-81.281078,183
Cerro Neque,8.8694733,-81.9227552,183
San Juanito,8.6644678,-80.465035,182
Bajo Grande,8.5920879,-80.6698429,182
La Angustia,8.5553728,-80.4336826,182
Altos de los Darieles,8.8173404,-80.2710985,182
Tucuecito,8.6888079,-80.3421948,182
Urbanizacion Dona Fela,8.4884013,-82.5784628,182
Cerro  Mesa,8.3811598,-81.8808066,182
Cerro Brujo,9.1882995,-82.1855107,181
El Cristo,8.43263,-80.6810255,181
Boca de Lura,8.7840912,-80.3398854,181
El Jazmin,7.9514234,-80.5902543,181
Llano Afuera,7.7411079,-80.270642,181
Buenos Aires,7.3983617,-80.4815473,181
Caimitillo,8.7741484,-79.9345778,181
Riecito Abajo,8.8899122,-80.1563303,181
Paso Real,8.2015681,-81.2626696,181
Cascajilloso,7.3876222,-80.8738896,181
Cerro Mono,8.3063162,-81.6646346,181
Bagla,8.4432372,-81.7542968,181
Las Delicias,8.6447205,-80.4945797,180
El Piral,8.5513302,-80.2799644,180
Las Dos Bocas,8.0592052,-80.8510647,180
Las Huacas,8.2714872,-81.2031671,180
Las Huacas,7.9023924,-81.1406599,180
Cerro Miel,8.4339345,-81.6582401,180
Quebrada Carrizo,8.3186653,-81.7365683,180
Ensenada o Quenamoy,9.1534504,-81.8694222,180
Las Tablitas,9.2561056,-79.6596641,179
Los Planes,8.6309005,-82.2163707,179
Camoganti,8.0417142,-77.8868155,179
El Guasimo,7.8096486,-80.5274278,179
Santa Clara,9.0264331,-79.7497936,179
El Naranjal,8.5163231,-80.0312917,179
Buena  Vista  Sur,7.9592851,-81.0925041,179
Boca de Monte,8.1197507,-81.3015936,179
Quebrada Juri o Quebrada Arena,8.8627788,-82.1298302,179
Paticinky o Cayo Patterson,9.0957825,-81.9006048,179
Bermejo,8.663898,-80.5253606,178
Mateo,9.2233573,-80.0872427,178
Finca Bongo,8.4059143,-82.9052827,178
Sabalo,8.4002489,-82.098069,178
Valle Rico,7.6201093,-80.3507586,178
Altos del Jobo,8.9893553,-79.8163406,178
El Cigual,8.839839,-79.9295388,178
El Arenal,8.4874058,-79.9633772,178
Residencial Villa Atena,8.0794087,-80.8903804,178
Los Barriles,8.1011245,-81.0129575,178
Alto El Comun,8.4209517,-81.6898136,178
Punta Valiente,9.1791616,-81.9174645,178
Alto Bilingüe,8.6026065,-81.2347915,178
Los Alveos,8.5348445,-80.1708969,177
Santa Cruz,8.5400252,-80.3113261,177
El Platano,9.1252563,-80.0500959,177
La Vaquita,8.3938166,-82.9605073,177
El Escobal,8.5960119,-82.6484148,177
El Piro,7.7663718,-80.6310348,177
Pueblo Nuevo o Huesital,8.9072971,-79.968882,177
Garnadera,8.0339537,-80.9492773,177
Loma del Naranjo o Los Guarumos,8.3343454,-81.4420098,177
Cabuya,8.4475361,-81.4773548,177
Guiri,8.4545545,-80.6283245,176
El Toro,7.7538218,-80.8704431,176
El Rincon,7.7340051,-80.301017,176
Barriada San Antonio,7.7604579,-80.2785602,176
La Pintada,7.4626092,-80.6483036,176
La Gaita Arriba,8.8286572,-80.0538676,176
El Rodeo,8.5035185,-79.9572372,176
Alto de los Martinez,8.1895762,-81.4151397,176
Tolerique,7.995574,-81.3044388,176
Farfan,7.6909009,-81.2165652,176
Tupsuit Dummat,9.5220002,-79.0561728,176
Limon,8.5592284,-82.042794,176
Guaca,8.4368832,-81.7649459,176
El Penon,8.4531004,-81.4195569,176
Virotal,8.5412435,-81.4920552,176
Barranquilla 1,8.8603109,-82.0900928,176
Guabo Arriba,8.8011803,-81.4816832,176
Bahia Grande,9.2466331,-82.2837541,175
Cerro El Encanto,8.519737,-80.3399311,175
Sabana Larga,8.6848533,-80.2796381,175
Caimital,8.5825892,-80.3692157,175
Los Azules,8.4618061,-82.7914786,175
Residencial Valle Verde,8.4669131,-82.3893667,175
Los Chacones,7.8354791,-80.3783604,175
Trinidad Arriba,8.725269,-79.9858843,175
Altos de Tanara,9.134362,-79.2174179,175
El Cruce de Arosemena,8.9491256,-79.948117,175
Quebrada Nigüa o Chuve,8.5370131,-81.9443064,175
Bajo Mosquito,8.4013211,-81.6278427,175
Loma Bonita,9.386354,-82.4982837,174
Palmilla,8.9079281,-80.7935507,174
Las Mirandas o Alto Las Nubes,8.8774523,-82.5902249,174
La Cuchilla,8.592071,-82.6063006,174
Nuestro Amo,8.0053557,-80.9177741,174
Llano de los Muertos,8.0855732,-81.436045,174
Trinidad Arriba,7.9346363,-81.1424452,174
San Cristobal,8.3776745,-81.5334066,174
Quebrada Honda,8.2859131,-81.7888389,174
Coronte,8.7386156,-81.7872874,174
Rio Luis,8.6742048,-81.2340013,174
Las Delicias Abajo,9.6039832,-82.847947,173
Villa Linda,9.2966266,-79.8014315,173
La Union,8.4993513,-82.7883582,173
Zueco o San Pedro Abajo,8.5548762,-82.8099266,173
Alto Majagua,8.5513206,-82.4779624,173
Bejuco,8.57674,-82.4566067,173
Bajo Solis,8.3285208,-81.5315281,173
Quebrada Felix,8.3681038,-77.8499708,173
El Higuito de Senales,7.9256869,-80.7857667,173
Cerro Algodon,8.3340217,-81.6487028,173
Agua de Salud,8.5094165,-81.4745534,173
Buena Selva,9.3187118,-82.5956933,172
Farallon,8.597323,-80.4257585,172
U Centro,8.8173624,-80.2228553,172
Baco,8.0791773,-82.8788962,172
Aldea Embera,8.114253,-78.0198034,172
El Bongo,7.9242429,-80.4596079,172
Playa Monagre,7.9669589,-80.3518439,172
La Mina,8.9206539,-79.6559655,172
Boca de Quebrada Ullama,8.4271483,-81.9906817,172
Larguillo Centro,8.6593974,-80.2085299,171
Siogui Abajo,8.4566481,-82.6709014,171
Caratales,7.9370418,-80.9504845,171
La Iguana,8.1127009,-81.031622,171
El Cangrejal,8.0921734,-80.8691142,171
Mununi No.2 o Mununigoto,8.6826689,-81.7596685,171
Solon,9.361276,-82.6040027,170
El Guarumo,8.9485851,-82.1796728,170
Mata de los Reyes,8.3321623,-80.53344,170
Las Playitas,7.7007859,-80.7911925,170
El Cedro,7.6877008,-80.6581271,170
Cerro Largo,7.8387663,-80.8297774,170
Palo Diferente,8.9790486,-79.6920155,170
Yape,8.0983901,-77.5981663,170
Santa Marta de Yorkin,9.4091095,-82.5917813,169
Quebrada Cacao,9.2387354,-82.3993978,169
El Pedregoso,8.583767,-80.4137019,169
El Cruce,7.8580418,-80.3152104,169
Boca de Quema,7.5232871,-80.5788887,169
San Juan de Pequeni,9.3807862,-79.525452,169
Veraguas,8.8682892,-80.9054174,169
El Canito,8.8633702,-80.9145914,169
Quebrada Venado,8.4507685,-81.9805511,169
Rio Tobori,8.948352,-81.7715293,169
Finca 67 Abajo,9.4248684,-82.5016459,168
Santa Rosa,9.3575734,-82.530376,168
Las Penitas,8.5114049,-80.1799635,168
El Harino,8.6133209,-80.5585131,168
La Albina Grande,7.8700482,-80.3048003,168
El Chileno,8.7208809,-80.0108054,168
Rodeo del Nance,8.4428618,-80.0404897,168
El Roble,8.5835012,-80.10773,168
El Potrero,8.3842863,-80.7963165,168
El Guayabal o Guayabal,8.3003628,-81.7763383,168
Cremante o Nirionte,8.6155148,-81.7475847,168
Essey Arriba,8.902895,-81.7322404,168
Vicira,9.4853258,-82.6950191,167
El Salado,8.1860362,-80.4821228,167
Buena Vista  Abajo,8.6278702,-82.6320198,167
Bagala,8.450975,-82.5256207,167
Barriada Asociacion de Nuestra Senora de los Angeles,8.5201315,-82.297543,167
Pueblo Nuevo No.1,8.683995,-78.1442838,167
El Chorro,7.7939253,-80.6392645,167
Aguacate Arriba,8.7503088,-79.9703119,167
La Perdiz Arriba,8.3590378,-81.0175078,167
La Sabaneta,7.780005,-80.9847659,167
Bajo La Arena,8.4782017,-82.5877047,166
Nueva Suiza,8.8521662,-82.5971767,166
La Colonia,8.5664789,-82.6525316,166
Canas Blancas Abajo,8.681635,-82.8116043,166
Rincon Largo o Buenos Aires,8.2300803,-81.8824506,166
Los Pintos,7.7733203,-80.7004871,166
La Gallinaza,8.2485551,-80.786565,166
Piedra de Amolar,8.4179637,-81.2671019,166
Alto Conejo,8.4528129,-81.615736,166
Langosta o Playa Langosta,9.4670314,-79.7237504,165
La Cucua,8.4339128,-82.6487944,165
Finca Guayacan,8.3502616,-82.8493981,165
Las Guabas,7.9097824,-80.8058929,165
Jobero,7.3673768,-80.5433538,165
Panamaes,8.1954277,-80.8444674,165
Barriada San Roque,8.138729,-80.9549035,165
Cerro Puerco o El Mango,8.1635515,-81.5298064,165
Los Cedros,9.0222657,-80.1564266,164
Las Huacas,8.362825,-82.7892606,164
El Naranjal,8.5383759,-82.3915954,164
Chiriquicito,8.6813383,-82.2750906,164
Playa Chiquita,8.8473733,-79.7516198,164
Aclita,8.0535215,-81.1257818,164
Calabazal o Ciogrode,8.3547606,-81.9553857,164
Salado Arriba,8.2740649,-81.7756091,164
El Cedro,8.1668815,-81.5559407,164
No Tolente 2,8.9306675,-81.8899915,164
Loma de Agua,9.0025409,-82.3491618,164
La Milagrosa,8.9267487,-82.1823439,163
Llano Sanchez,8.4082303,-80.196627,163
La Mesa,8.6376123,-80.1300538,163
Tebujo,8.5614619,-80.2000031,163
Las Minas,8.5854107,-80.6076447,163
U Arriba,8.7768932,-80.1792723,163
Huacas Abajo,8.568563,-82.5533845,163
El Ciruelo,7.8903781,-80.6751603,163
Barriada San Isidro,7.8997768,-80.6134076,163
Quebrada Grande,8.7543056,-79.8084316,163
Charare,9.267409,-79.0688725,163
El Picador,8.3882134,-81.2547308,163
El Cobrizo,8.4410686,-81.3862038,163
Las Penitas,8.0452177,-81.1582079,163
Zancudo,7.7731462,-81.3012923,163
Cabecera de Quebrada Piedra,8.4608278,-82.0524218,163
Alto Arena,8.3884902,-81.6400689,163
Alto Cienega,8.4544655,-81.6494223,163
Mirones o Quebrada Mirones,8.6633098,-81.6950092,163
Barranquilla 2,8.8608326,-82.074047,163
Santa Rita Abajo,8.4798326,-80.1927406,162
Villa Natalia,8.4702328,-82.4223503,162
Atalayita,7.8230632,-80.5686424,162
Barriada El Pozo del Obispo,7.9283983,-80.4230963,162
Cerro Cabra No.1,8.9012091,-79.6312601,162
Paso Real,8.1726432,-81.0949256,162
Estero Salado Arriba,8.7524076,-81.1177623,162
Urbanizacion Santa Teresita,8.1431969,-80.9897251,162
Cabecera de Quebrada  Otoe o  Cleva,8.3618688,-81.9046987,162
Cerro Plata,8.4773325,-81.5458551,162
Valle Bonito,8.6377983,-81.2714129,162
Cauchero Arriba,9.164012,-82.2963982,161
Quebrada del Pueblo,9.1638833,-82.3756848,161
Palo Seco,9.2302608,-82.4099126,161
El Nance,8.5786418,-80.1647009,161
Larguillo Arriba,8.6589003,-80.1986575,161
Gatun o Rio Gatun,9.2877354,-79.7697428,161
Santa Rosa,9.1911924,-79.6610362,161
Guayabal,8.3094803,-81.5829831,161
El Munoz,7.6760022,-80.320147,161
Arenilla,8.7250912,-80.1010843,161
Ullama o Cabecera de Ullama,8.4167721,-81.9727083,161
Cana Blanca,8.7382041,-81.413905,161
Bahia Honda,9.3147418,-82.156624,160
Quebrada Mono,9.1496844,-82.4058607,160
Farallon,8.6257007,-80.5744679,160
Los Laguitos,9.0012154,-80.0399439,160
Gasparillal,8.8652353,-80.0082981,160
Dodaque Puro o Riolito,8.56139,-77.7674397,160
La Cauchera,9.0502653,-80.0934252,159
El Banco de Palmira,8.6978369,-82.5302215,159
El Maria,8.2388834,-81.788152,159
El Bijao,7.9036325,-80.4932002,159
Los Higos,7.707113,-80.532206,159
La Puente Arriba,9.1741884,-79.5253832,159
Los Portales,9.1288236,-79.5444691,159
Quebrada Larga,8.4402493,-81.2111239,159
El Espavecito,8.1173751,-81.3975173,159
Cerro Sobrino,8.4831344,-81.984132,159
Boca de Quebrada Hacha,8.529555,-81.9201247,159
Las Delicias Arriba,9.5888469,-82.8651137,158
Las Lomas,8.4467618,-80.0866043,158
Escobal,9.1476757,-79.9615337,158
La Colorada,7.8256459,-80.5571699,158
La Corocita,7.4481635,-80.5212908,158
El Ahogado Centro,8.8669804,-80.0866228,158
Asentamiento Superacion Campesina,9.1696086,-79.1539111,158
Chinina Abajo o Pueblo Nuevo,8.9772785,-79.0241388,158
Calle del Idaan,9.1475704,-79.5595782,158
La Pita,8.5027676,-80.0805297,158
San Bartolo,8.2125267,-81.2780499,158
Cerro Viejo,8.4819835,-82.1149109,158
Calabacito,8.4820759,-82.0149237,158
Burori o Burari,9.0441607,-81.7660604,158
Los Rincones,8.2667978,-80.6775875,157
San Roquito,8.4479805,-80.6916499,157
Banacito,8.816587,-80.3270924,157
San Juan de Turbe,8.7848033,-80.6222405,157
Finca La Florentina,8.8165621,-82.6316783,157
Paja de Sombrero,8.6852581,-82.3225118,157
Barriada San Pedro,7.9570552,-80.4775513,157
Las Lagunitas,7.6212117,-80.2550105,157
Llano Grande o Miraflores,7.729932,-80.2807248,157
Barriada Bulevar,7.7795086,-80.2698067,157
Jenene,9.2236032,-78.8471444,157
Las Lajas,8.9158048,-79.9289126,157
La Candelaria,8.0357825,-80.9314652,157
La Lega,8.0831878,-81.0034377,157
Cabecera  de  Dupi,8.3638838,-81.8947006,157
Macano o Cerro Mosca o Miguiaya,8.2813204,-81.547248,157
Cuerna Vaca,8.4911442,-81.8004114,157
Los Pinos,8.226785,-80.5926535,156
La Union,8.3598407,-82.9721352,156
Barriada La Esperanza,8.495849,-82.5913191,156
Mandiga,7.8516828,-80.6639169,156
Dos Hermanas,8.5133091,-79.9489224,156
El Comejen o San Antonio,8.4481373,-80.0219958,156
Ciruelar Centro,8.3422183,-81.0774073,156
Lajitas,8.6780817,-81.2196859,156
Morondo,8.4200033,-81.7624033,156
Nirionte 2,9.251406,-82.4669288,155
Sibube,9.6021619,-82.8262041,155
Casas Viejas o Barriada El Campesino,8.9552423,-82.1399307,155
Playa Blanca Club Golf,8.3715765,-80.1339722,155
Finca Palmito Viejo,8.4143441,-82.8696001,155
Los Cerritos,8.6343024,-79.902022,155
Palo Seco o La Pista,9.1627398,-78.879667,155
Campana,8.4274754,-81.2952748,155
El Tigre,8.239233,-77.5449181,155
Cerro Mesa Abajo o  Cerro  Gato o  Cerro  Tuza,8.3673397,-81.8712015,155
Alto Estrella,8.4027433,-81.6835243,155
Piedra Pintada,8.2409182,-81.5745831,155
Quebrada Jagua,8.449634,-81.515028,155
Miramar,9.5754442,-79.3357347,154
Acueducto Almendro,8.4220199,-82.8644282,154
Barriles,8.7937696,-82.6927288,154
El Satro,8.4671538,-80.8364101,154
La Penita de los Hernandez,8.3124268,-81.1072694,154
Quebrada Cana,8.2503628,-81.6077024,154
Rio Chelele o Jirote,8.5655584,-81.2503957,154
Cerro Gordo,8.4962045,-80.4119705,153
Santa Rosa de Lima,8.3539844,-82.7656487,153
Bijao,8.722387,-82.626091,153
Palmira,8.8328214,-78.0990493,153
Zimba,8.7331485,-78.2269512,153
La Penita,8.3593753,-77.8054068,153
Las Trancas,7.732814,-80.3695275,153
El Rompio,7.9659422,-80.3419083,153
El Cruce,7.4438745,-80.4093438,153
Buenos Aires,9.2444149,-78.8215739,153
Altos de Martincito,8.0786343,-80.9738307,153
Cerro Armado,8.1734958,-81.5290899,153
La Nueva Esperanza o Cantiflan,9.4334596,-82.556139,152
El Espino,8.4121735,-80.2101574,152
Union Coclesana,9.0517806,-80.3811892,152
Iguanita,9.4972521,-79.6946498,152
Bajo Cerron,8.7447682,-82.8566571,152
Boca de Macho,8.3138819,-81.9734945,152
Cerro Gallote,8.3318121,-81.5879887,152
Sajalices,8.6931778,-79.868,152
Rio Indio Centro,8.732489,-80.1173221,152
Maguebgandi o Achiote o Achiotal,9.384013,-78.4103454,152
Guayabal o Alto Guayabal,8.5281887,-81.6592373,152
Alto Algarrobo,8.4077818,-81.6143167,152
Guayabal,8.8332675,-82.2669261,152
Tolote,8.8601313,-82.2439342,152
Rio Sabalo,8.8603256,-81.9125547,152
Pueblo Nuevo,8.4680507,-80.2196388,151
Luisa,8.4803808,-80.6945928,151
Frijol de Palo,8.4977769,-82.7801063,151
Las Cumbres,8.8414717,-82.5571541,151
Cerrillos,8.5717979,-82.345546,151
Rovira Abajo,8.6268703,-82.4924488,151
El Corozo,8.0282061,-80.5420771,151
Guanico Arriba,7.3391192,-80.4922943,151
Loma Bonita,9.1608972,-79.2612874,151
Malena,7.5769916,-80.9620062,151
Perdiz,8.5880869,-81.9557852,151
Sirain Abajo,8.8493652,-81.8380903,151
Cienaga Redonda o El Espino,8.2933458,-80.5690167,150
Nueva Arenosa,8.9904095,-80.1303439,150
Galilea,7.8862568,-77.8629079,150
La Sabaneta,7.7491564,-80.6175038,150
Las Pipas,7.7023937,-80.6947738,150
Pajaron,7.9082763,-81.6168841,150
Cerro Corozo,8.3865377,-81.8187315,150
Quebrada Pita,9.2157613,-82.4110671,149
El Bajo de La Esperanza,9.2797807,-82.4977706,149
Kapequicha o Alto Yorkin,9.4832426,-82.8173462,149
Punta Robalo,9.0407689,-82.2593661,149
Chiriquicito 2,8.9517865,-82.1683176,149
Barriada San Pedro,8.2562158,-80.6155016,149
La Encantada,9.0971977,-80.1912478,149
Nueva Esperanza o Chatal,8.6205439,-82.642006,149
Brazos de Gariche,8.7051492,-82.6727017,149
Puerto Victoria o Las Vueltas,8.3841697,-82.1985799,149
Nuevo Paraiso,8.7939862,-78.403649,149
Guabal Poniente,8.313533,-81.3059249,149
El Centeno,7.9966015,-80.9749364,149
Bisira,8.3410247,-81.8865705,149
Santa Marta,8.7268685,-82.0042388,149
Comunidad Trotman,9.1402159,-81.9049206,149
Pina,8.9350338,-82.1116672,148
Quebrada Garza,9.1224749,-82.2971095,148
Maranoncito,9.0823417,-80.0565616,148
Finca Zapote,8.3779551,-82.8506992,148
La Fuente,8.7796978,-82.800335,148
Quebrada Lajas,8.1512817,-81.6353616,148
La Lomita,8.6731702,-78.1406149,148
Aruza,8.0907569,-77.6166011,148
La Polonia,7.9512386,-80.7042648,148
Huertas Arriba,7.9341911,-80.4347008,148
Pueblecillo,8.872174,-79.9836363,148
El Cortezo,8.3704419,-81.3328777,148
Santa Rita,8.011126,-81.2788172,148
La Pulida,8.302866,-77.6210591,148
Cerro Sol,8.458114,-81.9444631,148
Boca de Sagui,8.5592047,-81.9823291,148
Cascabel o Plan Ghegui,8.5237514,-81.8743579,148
Cerro Galindo,8.2971211,-81.5942155,148
Javilla,8.4694732,-81.5972226,148
Mata Palo,8.5576534,-80.1352095,147
El Palmar,8.5776769,-80.6718995,147
La Coclesana,9.2754269,-79.670954,147
Paja Blanca,8.3233716,-82.5757196,147
Higueron o Topoyiyo,8.399255,-82.8908219,147
Guabal,8.5792152,-82.5355843,147
Alto Pineda,8.8343616,-82.5742137,147
Las Filipinas,8.7603995,-79.9404197,147
El Mangote,8.610185,-79.8651101,147
Caimitillo Abajo,8.8860905,-79.9265645,147
Monte Grande,8.2992833,-81.4235702,147
Los Panamaes,7.9498137,-81.1435773,147
Cerro Venado,8.5751993,-82.1085601,147
Conejito,8.4342705,-81.6286129,147
Centro Daira 2 o Mumanirote,8.8749607,-82.0477772,147
Playa Balsa,9.1467308,-81.8560016,147
Los Torres,8.5683625,-80.1580888,146
El Rincon,8.3847342,-80.1813397,146
El Chumical,8.6330138,-80.4246023,146
Alto de Gariche,8.5299261,-82.7467183,146
Las Lajas,8.8943116,-80.0906408,146
Tanara,9.1226652,-79.206402,146
Los Llanitos,8.5979615,-80.0931713,146
Monjaras,8.3701887,-80.8648818,146
Pena Blanca,8.753331,-81.0829932,146
Higueron,8.5187499,-81.9573878,146
Quebrada Caracol,8.380364,-81.8602326,146
Punta Alegre,9.160829,-81.9081495,146
Agua Buena,8.5702353,-80.5337224,145
La Pita,8.4288379,-82.5890562,145
Majagua Civil 1,8.3562952,-82.9029416,145
Entradero de Menchaca,7.8769481,-80.7509565,145
Rodeito,7.8375359,-80.5545872,145
Nuevo Ocu,7.6857849,-80.1503558,145
Nuevo Paraiso,8.919063,-80.079155,145
El Pajonal,8.6183329,-79.8679389,145
Los Llanitos,8.5244175,-79.9517752,145
Agua Blanca o Pueblo Nuevo,7.6746073,-81.2579666,145
Cerro Pavon,8.4419358,-82.0498197,145
Bajo Cerro Name,8.322472,-81.719748,145
Güibale,8.5183499,-81.3571755,145
Pedregal,8.6214431,-81.6717307,145
Los Pajaros,8.6322006,-80.5843164,144
Bahia Honda,7.8495043,-80.6761518,144
La Humildad,8.9479,-80.0270411,144
Rio Platanares,8.8725055,-78.7736472,144
El Guabal,8.5769178,-81.201156,144
Lerique,8.0619591,-81.3273485,144
Bolango No.1,8.5483293,-81.5132738,144
Los Santos o Clebade,8.3184252,-81.5507435,144
Llano Bonito,8.4410537,-81.615716,144
El Murcielago,8.2763591,-81.4527113,144
El Palmar Abajo,8.662024,-80.3917122,143
Boqueron Arriba,8.5188827,-82.5711338,143
Buena Vista Arriba,8.6545346,-82.6354357,143
La Quebrada,8.5081327,-78.1694985,143
Cacao,8.7353524,-78.4738632,143
Las Palmeras,8.1629883,-77.6975664,143
Quebrada Cali,9.0813097,-78.685296,143
Alto Limon,8.3604709,-81.8589797,143
El Jacinto,8.4122358,-81.4650049,143
El Caracol,9.287466,-82.3995761,142
La Marina,8.7739485,-80.3794164,142
Belen,8.884332,-80.8682587,142
Punta  Barco,8.5135275,-79.9159839,142
El Hatillo,8.2717598,-81.3460652,142
El Mamey,8.1391816,-81.5046416,142
Nueva Esperanza,8.3293916,-77.6010491,142
Cerro Viejo Abajo,8.4634065,-82.1353802,142
Guacamaya o Rio Guacamaya,8.6711217,-81.2743651,142
Changuinola Arriba,9.1836481,-82.4909578,141
La Estancia,8.5518153,-80.2085228,141
Barriada Nueva Esperanza  2,9.2808424,-79.7149777,141
El Jobo,8.4941175,-82.3384235,141
El Canafistulo,7.6202363,-80.231411,141
Caimitillo,8.5549837,-80.0581781,141
Cerro Viejo,8.3397328,-81.1876453,141
Bisvalles,8.1859506,-81.2218695,141
Chumical,8.0523124,-81.0646552,141
Cerro Banco,7.9223524,-81.1664859,141
La Mojarrita,8.2571697,-81.0485353,141
Hato del Carmen,8.4232871,-81.1288013,141
El Cacao,7.3471675,-80.8671837,141
Hato Loro,8.4414781,-81.8582063,141
Monte Lirio,8.8673712,-82.1018487,141
Los Zules,8.8987668,-80.26788,140
Altos de La Gloria 2,9.2504275,-79.6686063,140
Calle Larga,8.7493985,-80.7343525,140
Santa Marta,8.7040416,-82.588623,140
Paja Blanca,8.4173402,-82.3128685,140
Alto Algarrobo,8.3351863,-81.5606641,140
El Coco,7.4976396,-78.0735498,140
Boqueron,7.8757917,-80.9247705,140
La Pena,7.7657464,-80.412094,140
La Limona,7.8035576,-80.438228,140
Sotillo,8.8046556,-79.8753706,140
Rio Bote o Arkidi,9.2003547,-78.6154871,140
Rodeo Viejo,8.1170957,-81.3151854,140
La Primavera,7.7252434,-80.9590221,140
Espave,8.3412203,-81.6384736,140
Quebrada Mojarra,8.4486643,-81.4578973,140
Cabecera de San Pablo,8.5401361,-81.3412597,140
Palmito,8.8451267,-82.2062972,140
Los Cerritos,8.5667915,-80.1689546,139
Boqueron,8.6195903,-80.2330267,139
Guanabano,8.233814,-82.9067996,139
Gariche Abajo,8.4646547,-82.7635499,139
Zapote,8.3793387,-82.2891329,139
Entre Rios,8.6686416,-82.2385581,139
El Negrito,8.0425185,-80.803528,139
El Guayabo,7.7387564,-80.2979907,139
Mandinga,8.7546567,-79.7952909,139
Santa Rosa No.1,8.8647766,-80.0971932,139
Piedra de Agua,8.4841328,-81.2864988,139
Naranjal,8.3100059,-81.0548942,139
Cerro Madera,8.4278186,-81.9203258,139
Limon,8.7484201,-80.6124275,138
Barriada San Agustin,8.5023165,-82.7091664,138
El Macano,8.6160133,-82.389599,138
La Pita,8.3993168,-82.2571395,138
Camaron,8.0621074,-81.6484442,138
La Canoa,7.7226163,-80.6112145,138
Puerto Melo o Via Melo,9.130172,-79.0952188,138
Bajo Limon,8.3527818,-81.8569371,138
Los Gallardos,8.3560062,-81.6998722,138
Quebrada Cocuyo o Tobori,8.7244688,-82.0244737,138
Quebrada Tigre Arriba,8.8125212,-81.9792017,138
Las Palmitas,9.5208489,-82.7065269,137
El Basal,7.9427968,-77.5346242,137
Boca de Viento,8.6675727,-79.9374457,137
Las Tetas,8.2749022,-80.7880916,137
San Miguel,8.2649308,-80.8198361,137
Higueronoso,7.4460674,-80.8832497,137
Guacamaya,8.5230911,-81.5978302,137
El Piro,8.4103905,-81.5214764,137
Los Guarumos,8.4567054,-81.2212716,137
Gavilan,8.6107019,-81.6780409,137
San Pedro Abajo,8.8283131,-81.5497064,137
Ritti,8.8510343,-81.7173121,137
Valle Libre,8.9876347,-82.4929886,136
La Poza,8.2463633,-80.6266494,136
San Isidro,8.8731936,-80.3813888,136
Ballestilla,9.5962656,-79.5949712,136
Pacora,8.799533,-82.8414862,136
Coquillo,8.2705648,-81.9878233,136
Cerro Gordo,7.7904846,-80.6991137,136
El Aromo,7.9164411,-80.3574477,136
Dos Aguas,8.9517517,-80.0994637,136
Quebrada El Nance,8.7452631,-80.0706216,136
El Hatillo,8.4902715,-79.9982601,136
La Cuesta o Bajo El Suspiro,8.5926869,-80.0846277,136
Barrigon,8.3758687,-81.5032918,136
La Esperanza,8.0812413,-80.9977997,136
Salto Dupi o  Dupi Centro,8.3528194,-81.8855279,136
Bajo Guayabal,8.5261164,-81.6630189,136
Los Martinez,8.5314135,-80.2370222,135
Nuevo Veraguas,9.111703,-80.3503221,135
Rio Marea o Rio Bagre,8.1390043,-77.9894453,135
Aruza Arriba,8.4017048,-77.9375195,135
La Guindabela o El Guasimo,7.9375785,-80.7583458,135
Cascajalillo,7.8800728,-80.5825219,135
El Manglarito,8.6709442,-80.0205543,135
Colinas del Naranjal,9.1332171,-79.2223615,135
Llano Largo,8.222136,-81.3065665,135
San Antonio Arriba,8.8023966,-80.9691981,135
Quebrada Sal,8.7733304,-81.9733672,135
Bocatorito,9.2411841,-82.2423071,134
Cerro Gordo,8.2930249,-80.6869969,134
El Potroso,8.6486419,-80.5896839,134
Alto del Maranon o El Cortezo,8.3003322,-80.6077851,134
La Zancona,8.5687569,-80.7362813,134
La Tollosa,8.8671372,-80.2168046,134
Las Moras,8.3750619,-82.5878182,134
Bajo Hondo de Culebra,8.2921616,-81.6079487,134
El Calabacito,7.720283,-80.5980641,134
La Concepcion,7.6716959,-80.0941768,134
El Barrero,8.5131383,-82.0717342,134
Mamey,8.3561926,-81.941075,134
Kuenanigote,9.0970497,-81.8345004,134
Shark Hole o Quebrada Maranon,9.2084423,-82.2042353,133
Sabaneta Arriba,8.6536928,-80.4452796,133
El Guabo,8.638638,-80.5219888,133
Bajo del Cerro,8.5339824,-82.6379083,133
La Libertad,8.5130316,-82.787369,133
Silla de Pando,8.8328115,-82.6934717,133
Residencial La Arboleda,7.7573859,-80.2751094,133
Pueblo Nuevo No.1,9.1647277,-79.2709789,133
Los Valles,8.4456887,-81.1981756,133
Llano Los Velasquez,8.1204358,-81.0133152,133
El Limon,8.0049888,-81.2237871,133
Nueva Molena,8.4999382,-81.96139,133
Quebrada de Loro,8.3580944,-81.9132133,133
Cerro Balsa o Crunoudi,8.2655733,-81.5221629,133
Cerro Aguacate,8.3334368,-81.797907,133
Tibite,8.7804676,-81.7858728,133
Nachuido o Quebrada Pluma,9.2295947,-82.453439,132
El Gallo,8.2177906,-80.5191972,132
El Ciruelo,8.4663154,-80.5905549,132
Aguas Frias,8.4295532,-80.3462874,132
Las Palmas,8.8909197,-80.2935461,132
Aguas Claras,8.6681288,-80.3788757,132
Boca del Congal,9.0166359,-80.3008035,132
Mejias Abajo,7.8464639,-80.7525463,132
Rio Indio,9.2112267,-79.2155069,132
Los Yerbos,8.5490967,-80.08218,132
El Potrero,8.0627173,-80.8822132,132
El Pedregoso,8.2161474,-81.456891,132
Alto Soloy,8.5073884,-82.0683777,132
Boca de Quebrada Secuara,8.3480411,-82.011617,132
Chalite,8.8730942,-82.0239424,132
El Pinzon,8.2770913,-80.7019571,131
Barriada Nueva Esperanza 1,9.2815259,-79.7173997,131
Conventillo,8.5659802,-82.4750419,131
Pedregosa,8.3316301,-81.6123513,131
Pueblo Nuevo,7.9260536,-80.5862483,131
Bahia Honda,7.7056846,-80.4517879,131
La Arenosa o El Limite,8.8569616,-79.9765267,131
El Progreso,8.8016501,-79.8744711,131
Llano Grande,8.3474713,-80.811016,131
Santa  Rosa,8.2996602,-81.2365331,131
Guabal Saliente,8.3165463,-81.1536788,131
Las Lajillas,8.3179923,-81.1302674,131
Las Animas de Boro,8.2353375,-81.3209278,131
La Mona o La Cruz,8.2944879,-81.0011941,131
Ciruelar Abajo,8.3280779,-81.0795911,131
Barriada 8 de Diciembre,8.1383522,-80.9885999,131
Las Lajitas,8.3743283,-81.6500195,131
Quebrada  Frijoles,8.3162644,-81.7280704,131
El Cope,8.4831764,-81.4198108,131
La Loma de los Gonzalez,8.3115264,-80.6833553,130
Brazo de U,8.7732329,-80.2008658,130
Villa Videli,8.4684654,-82.394016,130
Llano Bonito,8.1672956,-77.6963429,130
Llana Arriba,7.6454358,-80.7093742,130
Bayano,7.9208424,-80.595359,130
La Carrillo,7.9737294,-80.8832515,130
La Pedregosa,8.1753756,-81.4730485,130
Alto de Piedra,8.5152758,-81.107178,130
Cabecera de Guacamaya Roguaguidete,8.400701,-81.9894942,130
Cabecera de Quebrada de Pava,8.3672663,-81.9341346,130
Llano Horcon,8.3408252,-81.6209915,130
Villalobos,8.5945549,-80.5587756,129
Piedra Amarilla,8.5610643,-80.5485706,129
Boca de Cuira,8.8200416,-80.3760044,129
Los Camarones,9.2117918,-80.1217349,129
San Antonio,9.5620082,-79.5681737,129
La Esmeralda,8.3196862,-81.8533798,129
La Cabuya,7.9770234,-80.7671762,129
Loma Bonita,7.7362557,-80.2627493,129
Colorada Abajo,7.8303708,-80.5420572,129
Los Higos,7.5225916,-80.0985453,129
Mamoni Arriba,9.2837029,-79.2414243,129
La Hueca Arriba,8.2434227,-81.2829181,129
Cabecera de Quebrada Tigra,8.379428,-82.013588,129
Alto Algarrobo o Nuevo Cascabel,8.3485844,-81.9766787,129
Cerro Guasimo,8.4869536,-81.9239864,129
Salitre,8.4137633,-81.9097526,129
Bajo Cerro Cana,8.3666158,-81.6205581,129
Pedregoso o Boro,8.4112699,-81.529249,129
Puerto Cuite,8.8588715,-81.8996924,129
Ceiba Arriba,9.0227744,-82.5194051,128
Boca de los Rios,8.5689099,-80.5583583,128
Higo Mocho o Nueva Florida,8.2681959,-81.8741861,128
La Espigadilla Arriba,7.867901,-80.3850706,128
Altos del Espave,9.1344392,-79.2217555,128
Los Panamaes,8.3293725,-81.1701171,128
La Cucurucha,8.2910418,-81.5064177,128
Cerro Mamita,8.473456,-81.8768341,128
Llano Jejen,8.3931078,-81.6082332,128
Boinvota,9.5260235,-82.7230433,127
Los Valdez,8.5475623,-80.2300254,127
Alto Mexico,8.6009199,-80.1774333,127
Nuevo Sinai,8.8966728,-80.6327195,127
Los Pocitos,8.3327673,-82.569353,127
Tisingal,8.8100972,-82.665623,127
Altos de los Pinos,8.6616924,-82.2415961,127
Alto Laguna,8.1124244,-81.6379841,127
Valle Rico,7.9062418,-80.763303,127
Los Cantos,7.9659432,-80.6164299,127
Los Agallos,7.8513009,-80.3406319,127
La Bonita,7.3870994,-80.4613492,127
Arosemena,8.9740067,-79.9722093,127
El Nancito,8.5951694,-80.0255833,127
El Jaguito,8.4333265,-80.8534235,127
Los Higos,8.2055322,-80.8602249,127
Santiaguito,8.7649514,-80.9661647,127
El Juncal,8.4873675,-81.0270106,127
Bolivar,8.0265643,-81.229098,127
Cerro Molena,8.517946,-81.9281606,127
Bajos de Fonseca,8.3568695,-81.7404725,127
Puerto 2,8.9141052,-81.8758343,127
"La ""Y"" Griega",9.3608489,-82.2558555,126
Washout,9.5081495,-82.6926712,126
Los Paulinos,8.557037,-80.5676613,126
Valle del Platanal,8.8649777,-80.2774937,126
Jose Pobre o Jose del Mar,9.6002255,-79.6343955,126
El Salado de los Guabos,8.3272678,-82.7503056,126
Los Mameyes,8.7257052,-82.5126305,126
Borrola,7.8329496,-80.6310617,126
Las Lajitas,7.8758526,-80.3336806,126
Victoriano Lorenzo,9.2285691,-79.5420458,126
Otoque Occidente,8.6060728,-79.6058599,126
Los Coquitos,8.0173413,-81.4394864,126
El Prado,8.2376146,-81.5021804,126
Los Florentinos,8.0061307,-81.098831,126
La Puente,8.5163722,-81.0304656,126
Quebrada Camaron,8.5529087,-82.0259383,126
Cabecera de Quebrada Gallota o Llano San Martin,8.4227126,-82.0397466,126
